,City,Lat,Lng,Max Temp,Humidity,Cloudiness,Wind Speed,Country,Date
0,ushuaia,-54.8,-68.3,46.4,57.0,75.0,33.38,AR,1615671920.0
1,saskylakh,71.9167,114.0833,-10.23,98.0,42.0,4.72,RU,1615671928.0
2,baft,29.234,56.6057,47.35,66.0,0.0,2.21,IR,1615671967.0
3,eyl,7.9803,49.8164,77.56,86.0,81.0,12.17,SO,1615671967.0
4,bouar,5.934,15.596,70.43,73.0,97.0,4.03,CF,1615671968.0
5,la palma,33.8464,-118.0467,66.0,67.0,20.0,11.5,US,1615671968.0
6,port alfred,-33.5906,26.891,73.99,82.0,70.0,1.99,ZA,1615671867.0
7,mutoko,-17.397,32.2268,62.96,87.0,87.0,3.0,ZW,1615671969.0
8,kanye,-24.9667,25.3327,64.96,58.0,4.0,3.87,BW,1615671969.0
9,jamestown,42.097,-79.2353,37.4,32.0,1.0,10.94,US,1615671921.0
10,tiznit,29.5833,-9.5,63.77,61.0,45.0,1.74,MA,1615671971.0
11,hilo,19.7297,-155.09,71.6,83.0,90.0,10.36,US,1615671924.0
12,fallon,39.4735,-118.7774,55.4,14.0,1.0,5.75,US,1615671972.0
13,saint-philippe,-21.3585,55.7679,75.2,78.0,0.0,4.61,RE,1615671756.0
14,oksfjord,70.2396,22.3479,24.8,86.0,90.0,4.61,NO,1615671972.0
15,dikson,73.5069,80.5464,-21.84,96.0,100.0,16.64,RU,1615671936.0
16,chuy,-33.6971,-53.4616,65.8,69.0,11.0,8.52,UY,1615671972.0
17,rikitea,-23.1203,-134.9692,80.4,74.0,39.0,8.46,PF,1615671951.0
18,kapaa,22.0752,-159.319,72.0,94.0,90.0,26.46,US,1615671883.0
19,mataura,-46.1927,168.8643,66.0,60.0,2.0,8.01,NZ,1615671919.0
20,nikolskoye,59.7035,30.7861,36.0,87.0,75.0,6.71,RU,1615671905.0
21,busselton,-33.65,115.3333,50.0,94.0,0.0,11.65,AU,1615671975.0
22,kodiak,57.79,-152.4072,30.2,40.0,1.0,8.05,US,1615671945.0
23,beyneu,45.3167,55.2,23.38,45.0,0.0,8.01,KZ,1615671975.0
24,sola,-13.8833,167.55,82.4,83.0,75.0,10.8,VU,1615671976.0
25,vila franca do campo,37.7167,-25.4333,59.0,94.0,75.0,17.27,PT,1615671976.0
26,hobart,-42.8794,147.3294,48.2,66.0,20.0,12.66,AU,1615671941.0
27,cayambe,0.05,-78.1333,55.4,94.0,90.0,6.91,EC,1615671977.0
28,vaini,-21.2,-175.2,77.0,88.0,40.0,9.22,TO,1615671874.0
29,meulaboh,4.1363,96.1285,75.83,83.0,100.0,3.33,ID,1615671978.0
30,plouzane,48.3833,-4.6167,44.6,70.0,40.0,11.5,FR,1615671979.0
31,antalaha,-14.9003,50.2788,74.21,84.0,87.0,7.47,MG,1615671685.0
32,guerrero negro,27.9769,-114.0611,62.71,46.0,0.0,18.92,MX,1615671978.0
33,cidreira,-30.1811,-50.2056,74.16,83.0,4.0,10.18,BR,1615671880.0
34,sampit,-2.5333,112.95,73.02,98.0,51.0,1.79,ID,1615671981.0
35,puerto cabezas,14.0351,-83.3888,84.2,89.0,40.0,9.22,NI,1615671981.0
36,kamaishi,39.2667,141.8833,45.99,86.0,100.0,9.86,JP,1615671982.0
37,east london,-33.0153,27.9116,78.01,64.0,39.0,12.57,ZA,1615671982.0
38,najran,17.4924,44.1277,71.6,24.0,90.0,11.5,SA,1615671943.0
39,saint george,37.1041,-113.5841,48.99,75.0,40.0,3.89,US,1615671983.0
40,punta arenas,-53.15,-70.9167,51.8,46.0,20.0,23.02,CL,1615671876.0
41,souillac,-20.5167,57.5167,80.6,83.0,40.0,6.91,MU,1615671984.0
42,los cedrales,-25.65,-54.7,93.2,40.0,0.0,5.75,PY,1615671984.0
43,puerto ayora,-0.7393,-90.3518,82.99,74.0,40.0,9.22,EC,1615671948.0
44,college,64.8569,-147.8028,3.99,70.0,1.0,2.57,US,1615671871.0
45,atuona,-9.8,-139.0333,79.18,62.0,49.0,4.7,PF,1615671921.0
46,bluff,-46.6,168.3333,66.0,60.0,4.0,8.01,NZ,1615671947.0
47,salalah,17.0151,54.0924,75.2,73.0,0.0,4.61,OM,1615671986.0
48,skjervoy,70.0311,20.9714,32.56,97.0,100.0,7.05,NO,1615671987.0
49,karratha,-20.7377,116.8463,81.28,62.0,31.0,12.68,AU,1615671966.0
50,bathsheba,13.2167,-59.5167,80.6,65.0,20.0,13.8,BB,1615671934.0
51,grindavik,63.8424,-22.4338,26.6,74.0,75.0,20.71,IS,1615671978.0
52,batagay-alyta,67.8006,130.4114,-15.32,83.0,83.0,2.04,RU,1615671965.0
53,hithadhoo,-0.6,73.0833,83.95,67.0,12.0,8.48,MV,1615671989.0
54,albany,42.6001,-73.9662,41.0,25.0,43.0,1.01,US,1615671925.0
55,barrow,71.2906,-156.7887,-5.8,65.0,1.0,18.41,US,1615671756.0
56,qaanaaq,77.484,-69.3632,-1.35,64.0,100.0,7.43,GL,1615671990.0
57,ilabaya,-17.4208,-70.5133,70.29,73.0,70.0,6.44,PE,1615671991.0
58,genhe,50.7833,121.5167,18.57,91.0,46.0,3.76,CN,1615671991.0
59,biltine,14.5333,20.9167,85.06,13.0,19.0,15.86,TD,1615671992.0
60,verkhoyansk,67.5447,133.385,-18.24,93.0,52.0,2.48,RU,1615671992.0
61,bambous virieux,-20.3428,57.7575,80.6,83.0,40.0,6.91,MU,1615671917.0
62,te anau,-45.4167,167.7167,61.75,61.0,35.0,9.86,NZ,1615671993.0
63,sainte-suzanne,-20.9061,55.6089,77.0,73.0,0.0,16.11,RE,1615671994.0
64,avarua,-21.2078,-159.775,84.2,70.0,62.0,9.22,CK,1615671966.0
65,cape town,-33.9258,18.4232,66.99,94.0,90.0,13.8,ZA,1615671821.0
66,esperance,-33.8667,121.9,50.0,76.0,50.0,5.75,AU,1615671995.0
67,tiarei,-17.5333,-149.3333,87.8,66.0,20.0,6.91,PF,1615671995.0
68,butaritari,3.0707,172.7902,80.56,80.0,72.0,12.15,KI,1615671872.0
69,port elizabeth,-33.918,25.5701,71.6,64.0,75.0,9.22,ZA,1615671930.0
70,margate,51.3813,1.3862,41.0,65.0,82.0,3.0,GB,1615671921.0
71,termini imerese,37.9837,13.6956,57.99,75.0,1.0,1.99,IT,1615671997.0
72,salinas,36.6777,-121.6555,55.4,62.0,90.0,12.66,US,1615671783.0
73,muroto,33.2833,134.15,41.0,65.0,0.0,3.44,JP,1615671998.0
74,leningradskiy,69.3833,178.4167,19.92,79.0,100.0,4.97,RU,1615671998.0
75,huacho,-11.1067,-77.605,75.63,72.0,5.0,7.47,PE,1615671999.0
76,upernavik,72.7868,-56.1549,-6.38,95.0,12.0,6.42,GL,1615671945.0
77,chokurdakh,70.6333,147.9167,-20.54,92.0,0.0,4.29,RU,1615671999.0
78,makakilo city,21.3469,-158.0858,75.2,73.0,75.0,8.05,US,1615672000.0
79,makinsk,52.6292,70.4169,-7.08,97.0,0.0,7.58,KZ,1615672000.0
80,alegrete,-29.7831,-55.7919,83.03,38.0,39.0,5.91,BR,1615671918.0
81,kalach-na-donu,48.691,43.5264,24.8,74.0,75.0,17.9,RU,1615672002.0
82,bilma,18.6853,12.9164,79.48,11.0,0.0,5.3,NE,1615672002.0
83,surin,14.8818,103.4936,79.0,66.0,0.0,8.61,TH,1615672003.0
84,carballo,43.213,-8.691,55.0,82.0,75.0,9.22,ES,1615672003.0
85,wanning,18.8003,110.3967,70.68,93.0,30.0,5.41,CN,1615672004.0
86,khatanga,71.9667,102.5,-20.85,94.0,64.0,13.13,RU,1615672004.0
87,new norfolk,-42.7826,147.0587,46.99,69.0,6.0,4.38,AU,1615671918.0
88,qaqortoq,60.7167,-46.0333,24.8,54.0,75.0,4.14,GL,1615672005.0
89,severo-kurilsk,50.6789,156.125,30.22,77.0,29.0,9.48,RU,1615671958.0
90,lagoa,39.05,-27.9833,59.95,84.0,11.0,26.78,PT,1615672006.0
91,dire,12.2833,-10.9667,79.25,17.0,27.0,2.53,ML,1615672006.0
92,natal,-5.795,-35.2094,82.4,69.0,75.0,16.11,BR,1615671860.0
93,ponta do sol,32.6667,-17.1,59.0,72.0,99.0,1.01,PT,1615671918.0
94,coquimbo,-29.9533,-71.3436,64.4,72.0,20.0,11.5,CL,1615672007.0
95,porto novo,6.4965,2.6036,84.2,84.0,20.0,12.66,BJ,1615672008.0
96,cabo san lucas,22.8909,-109.9124,75.0,56.0,1.0,13.8,MX,1615671855.0
97,santa cruz de la palma,28.6835,-17.7642,64.4,68.0,90.0,6.91,ES,1615672009.0
98,high level,58.5169,-117.136,8.6,85.0,90.0,9.22,CA,1615672009.0
99,brae,60.3964,-1.353,42.8,87.0,20.0,25.32,GB,1615672010.0
100,bairiki,1.3292,172.9752,82.4,78.0,75.0,13.8,KI,1615672010.0
101,mustasaari,63.1142,21.6822,32.0,100.0,90.0,2.3,FI,1615672011.0
102,mahebourg,-20.4081,57.7,80.6,83.0,40.0,6.91,MU,1615671933.0
103,lorengau,-2.0226,147.2712,82.96,67.0,14.0,2.19,PG,1615672012.0
104,hermanus,-34.4187,19.2345,69.01,87.0,9.0,4.0,ZA,1615671870.0
105,sisimiut,66.9395,-53.6735,13.53,91.0,98.0,6.58,GL,1615671952.0
106,cherskiy,68.75,161.3,-6.2,96.0,100.0,17.0,RU,1615671997.0
107,yellowknife,62.456,-114.3525,0.0,60.0,90.0,6.91,CA,1615671712.0
108,bredasdorp,-34.5322,20.0403,62.6,94.0,13.0,2.3,ZA,1615671949.0
109,soja,34.6667,133.75,35.6,87.0,0.0,3.44,JP,1615672014.0
110,san patricio,28.017,-97.5169,78.8,65.0,75.0,28.77,US,1615671926.0
111,dingle,10.9995,122.6711,74.82,94.0,100.0,3.71,PH,1615672015.0
112,tasiilaq,65.6145,-37.6368,23.0,86.0,90.0,16.11,GL,1615671957.0
113,swellendam,-34.0226,20.4417,62.6,94.0,97.0,2.3,ZA,1615672015.0
114,portland,45.5234,-122.6762,63.0,41.0,1.0,4.81,US,1615671829.0
115,sidi ali,36.0998,0.4206,52.68,81.0,0.0,2.17,DZ,1615672016.0
116,mount isa,-20.7333,139.5,75.2,83.0,35.0,8.05,AU,1615672017.0
117,yerofey pavlovich,53.9667,121.9667,23.05,96.0,100.0,2.24,RU,1615672017.0
118,ribeira grande,38.5167,-28.7,60.8,94.0,75.0,20.71,PT,1615671915.0
119,ibra,22.6906,58.5334,62.38,58.0,0.0,1.5,OM,1615672018.0
120,tanout,14.9709,8.8879,80.67,13.0,22.0,14.45,NE,1615672019.0
121,airai,-8.9266,125.4092,60.33,93.0,99.0,1.3,TL,1615672013.0
122,loukhi,66.0764,33.0381,17.78,96.0,88.0,3.71,RU,1615672019.0
123,padang,-0.9492,100.3543,75.2,94.0,75.0,4.14,ID,1615672020.0
124,ladnun,27.65,74.3833,69.55,33.0,13.0,3.29,IN,1615672020.0
125,port macquarie,-31.4333,152.9167,71.6,94.0,40.0,5.75,AU,1615671800.0
126,tuktoyaktuk,69.4541,-133.0374,-11.2,77.0,90.0,2.3,CA,1615671947.0
127,pueblo,38.2545,-104.6091,37.4,87.0,90.0,9.22,US,1615672022.0
128,grimstad,58.3405,8.5934,37.99,81.0,40.0,6.91,NO,1615672022.0
129,kantang,7.4054,99.5156,72.84,93.0,62.0,2.59,TH,1615672022.0
130,iqaluit,63.7506,-68.5145,-13.0,64.0,40.0,16.11,CA,1615671943.0
131,victoria,22.2855,114.1577,69.01,85.0,49.0,1.99,HK,1615671675.0
132,hamilton,39.1834,-84.5333,53.6,28.0,1.0,4.61,US,1615672018.0
133,hasaki,35.7333,140.8333,51.8,54.0,75.0,12.66,JP,1615671937.0
134,ketchikan,55.3422,-131.6461,33.8,100.0,90.0,6.91,US,1615672024.0
135,kizilskoye,52.7255,58.8937,3.15,74.0,0.0,3.29,RU,1615672025.0
136,kiama,-34.6833,150.8667,64.99,91.0,100.0,3.0,AU,1615672025.0
137,dhidhdhoo,6.8833,73.1,82.27,75.0,67.0,10.71,MV,1615672026.0
138,nanortalik,60.1432,-45.2371,26.98,76.0,100.0,4.41,GL,1615672003.0
139,ambon,-3.6954,128.1814,75.2,94.0,40.0,9.22,ID,1615671855.0
140,marfino,55.7028,37.3822,28.4,86.0,90.0,8.95,RU,1615672027.0
141,nantucket,41.2835,-70.0995,41.0,56.0,1.0,19.57,US,1615671986.0
142,ostrovnoy,68.0531,39.5131,11.71,92.0,82.0,14.7,RU,1615672028.0
143,pitimbu,-7.4706,-34.8086,80.6,78.0,75.0,13.8,BR,1615672028.0
144,henties bay,-22.116,14.2845,64.99,93.0,56.0,1.99,NA,1615672029.0
145,santiago,-33.4569,-70.6483,82.0,38.0,0.0,6.91,CL,1615671998.0
146,manakara,-22.1333,48.0167,73.4,88.0,16.0,3.56,MG,1615672030.0
147,aquiraz,-3.9014,-38.3911,82.99,74.0,40.0,8.05,BR,1615672031.0
148,redkino,56.6475,36.2967,31.87,91.0,100.0,11.01,RU,1615672031.0
149,dagana,16.5165,-15.5068,80.6,36.0,0.0,10.29,MR,1615672032.0
150,poum,-20.2333,164.0167,79.86,73.0,94.0,14.81,NC,1615672032.0
151,zarand,30.8127,56.564,46.56,51.0,0.0,0.4,IR,1615671787.0
152,palana,59.1167,159.9667,0.82,92.0,100.0,17.36,RU,1615672033.0
153,kasempa,-13.4584,25.8338,63.19,96.0,91.0,3.24,ZM,1615672033.0
154,antofagasta,-23.65,-70.4,71.6,73.0,20.0,13.8,CL,1615672034.0
155,chojnow,51.2737,15.9366,42.01,69.0,26.0,15.93,PL,1615672034.0
156,ustyuzhna,58.8394,36.4321,31.93,96.0,93.0,9.17,RU,1615672035.0
157,the valley,18.217,-63.0578,81.0,73.0,40.0,3.44,AI,1615671948.0
158,vrangel,42.7297,133.0839,34.65,59.0,4.0,5.93,RU,1615672004.0
159,immokalee,26.4187,-81.4173,84.99,37.0,40.0,8.19,US,1615671893.0
160,maumere,-8.6199,122.2111,78.76,82.0,24.0,1.81,ID,1615671783.0
161,valparaiso,-33.0393,-71.6273,64.4,77.0,40.0,6.91,CL,1615672037.0
162,pangoa,-12.1167,-73.0,80.64,63.0,73.0,2.89,PE,1615672037.0
163,douglas,41.3,-96.167,57.0,44.0,90.0,13.8,US,1615672038.0
164,kruisfontein,-34.0033,24.7314,71.01,65.0,83.0,3.0,ZA,1615672038.0
165,ouesso,1.6136,16.0517,74.97,79.0,39.0,2.89,CG,1615672039.0
166,sundumbili,-29.1337,31.3975,75.2,83.0,0.0,11.5,ZA,1615672039.0
167,san rafael,-34.6177,-68.3301,83.91,33.0,32.0,12.17,AR,1615672040.0
168,rong kwang,18.339,100.3174,80.01,55.0,0.0,2.3,TH,1615672040.0
169,geraldton,-28.7667,114.6,71.6,37.0,0.0,27.63,AU,1615672041.0
170,georgetown,5.4112,100.3354,79.0,88.0,20.0,2.3,MY,1615671910.0
171,gizo,-8.103,156.8419,83.44,71.0,71.0,9.08,SB,1615672042.0
172,zhigansk,66.7697,123.3711,5.86,95.0,100.0,12.28,RU,1615672042.0
173,provideniya,64.3833,-173.3,23.83,93.0,100.0,25.84,RU,1615672043.0
174,torbay,47.6666,-52.7314,41.0,45.0,75.0,6.91,CA,1615671985.0
175,gourdon,44.75,1.5,46.99,91.0,85.0,1.01,FR,1615672044.0
176,paamiut,61.994,-49.6678,17.73,56.0,100.0,9.53,GL,1615672044.0
177,bordighera,43.7806,7.6645,57.2,62.0,0.0,21.85,IT,1615672045.0
178,katsuura,35.1333,140.3,55.4,44.0,75.0,25.32,JP,1615672007.0
179,mar del plata,-38.0023,-57.5575,69.8,68.0,20.0,13.8,AR,1615671691.0
180,changji,44.0167,87.3167,26.6,86.0,90.0,6.71,CN,1615672046.0
181,aktau,43.65,51.2,21.2,53.0,0.0,8.95,KZ,1615672046.0
182,hovd,48.0056,91.6419,18.03,19.0,100.0,0.2,MN,1615672047.0
183,constitucion,-35.3333,-72.4167,62.33,75.0,18.0,3.44,CL,1615672047.0
184,flin flon,54.7682,-101.865,33.8,40.0,20.0,5.75,CA,1615671909.0
185,tezu,27.9167,96.1667,69.91,55.0,96.0,2.24,IN,1615672048.0
186,kavaratti,10.5669,72.642,82.47,70.0,24.0,7.25,IN,1615672049.0
187,sobolevo,54.4299,31.8996,33.55,98.0,100.0,12.17,RU,1615671938.0
188,yuci,37.6803,112.7319,44.6,81.0,73.0,6.71,CN,1615672049.0
189,sioux lookout,50.1001,-91.917,42.8,28.0,75.0,19.57,CA,1615672050.0
190,bukama,-9.2,25.85,70.66,83.0,99.0,2.8,CD,1615672050.0
191,qasigiannguit,68.8193,-51.1922,8.6,72.0,75.0,16.11,GL,1615672051.0
192,caala,-12.8525,15.5606,62.17,93.0,97.0,1.97,AO,1615672051.0
193,san angelo,31.4638,-100.437,80.6,50.0,20.0,23.02,US,1615672052.0
194,mathbaria,22.2876,89.9593,69.73,68.0,0.0,4.07,BD,1615672052.0
195,broome,42.2506,-75.833,43.0,30.0,1.0,13.8,US,1615671970.0
196,terrace,54.5163,-128.6035,37.4,100.0,90.0,10.36,CA,1615672053.0
197,zhanaozen,43.3,52.8,26.02,55.0,71.0,8.43,KZ,1615672005.0
198,taft,31.7471,54.2088,44.6,49.0,0.0,9.22,IR,1615672054.0
199,goderich,43.7501,-81.7165,39.2,35.0,0.0,17.27,CA,1615671909.0
200,kuusamo,65.9667,29.1833,21.2,93.0,90.0,2.3,FI,1615672055.0
201,cadiz,36.5,-5.75,60.8,87.0,0.0,2.3,ES,1615672055.0
202,almunecar,36.7339,-3.6907,60.01,85.0,0.0,4.0,ES,1615672056.0
203,cozumel,20.5083,-86.9458,81.0,57.0,75.0,12.66,MX,1615671979.0
204,namatanai,-3.6667,152.4333,82.4,66.0,15.0,4.07,PG,1615672057.0
205,porto seguro,-16.4497,-39.0647,78.8,69.0,20.0,9.22,BR,1615672058.0
206,luderitz,-26.6481,15.1594,67.89,74.0,0.0,13.22,NA,1615671956.0
207,kvarkeno,52.0833,59.725,2.79,86.0,0.0,1.95,RU,1615672059.0
208,tiksi,71.6872,128.8694,-3.69,93.0,78.0,8.28,RU,1615672013.0
209,katrineholm,58.9959,16.2072,32.0,93.0,82.0,4.61,SE,1615672060.0
210,nouadhibou,20.931,-17.0347,68.0,60.0,0.0,12.66,MR,1615672061.0
211,zhangye,38.9342,100.4517,46.96,24.0,56.0,8.3,CN,1615671901.0
212,vostok,46.4856,135.8833,21.0,71.0,61.0,2.57,RU,1615671949.0
213,sitka,57.0531,-135.33,33.8,55.0,40.0,14.97,US,1615672007.0
214,bogdanovich,56.7803,62.0494,6.69,87.0,0.0,10.04,RU,1615672062.0
215,richards bay,-28.783,32.0377,74.89,82.0,0.0,13.47,ZA,1615672063.0
216,vasto,42.1243,14.7059,48.2,87.0,0.0,3.44,IT,1615672063.0
217,wasilla,61.5814,-149.4394,18.0,41.0,1.0,3.44,US,1615671941.0
218,hofn,64.2539,-15.2082,33.71,57.0,98.0,16.37,IS,1615672064.0
219,barrhead,55.7992,-4.3929,41.0,87.0,20.0,9.22,GB,1615672065.0
220,hobyo,5.3505,48.5268,79.66,82.0,92.0,12.77,SO,1615671993.0
221,nuuk,64.1835,-51.7216,15.8,73.0,55.0,13.8,GL,1615672065.0
222,dongsheng,39.8161,109.9776,42.55,84.0,83.0,19.48,CN,1615672066.0
223,codrington,-38.2667,141.9667,54.73,62.0,27.0,7.7,AU,1615672014.0
224,horizontina,-27.6258,-54.3078,71.6,65.0,39.0,5.3,BR,1615672067.0
225,dudinka,69.4058,86.1778,-18.08,96.0,100.0,14.65,RU,1615672067.0
226,emerald,-23.5333,148.1667,75.99,83.0,40.0,6.91,AU,1615672068.0
227,lebu,-37.6167,-73.65,61.5,72.0,0.0,9.42,CL,1615671913.0
228,mantua,45.1667,10.7833,50.0,69.0,59.0,3.0,IT,1615672063.0
229,omboue,-1.5746,9.2618,79.39,85.0,99.0,6.24,GA,1615671990.0
230,vestmannaeyjar,63.4427,-20.2734,31.17,66.0,0.0,19.6,IS,1615671953.0
231,merke,42.8728,73.1786,34.43,83.0,100.0,3.33,KZ,1615672069.0
232,itaueira,-7.6033,-43.0256,74.62,91.0,41.0,3.2,BR,1615672070.0
233,banamba,13.55,-7.45,74.26,9.0,57.0,10.16,ML,1615672070.0
234,manta,-0.95,-80.7333,82.4,78.0,75.0,8.05,EC,1615671924.0
235,tynda,55.1667,124.7167,29.19,96.0,100.0,2.62,RU,1615672071.0
236,lavrentiya,65.5833,-171.0,14.4,92.0,100.0,22.64,RU,1615672072.0
237,lompoc,34.6391,-120.4579,55.4,67.0,90.0,17.27,US,1615672072.0
238,kahului,20.8947,-156.47,69.8,94.0,90.0,17.27,US,1615672049.0
239,porto belo,-27.1578,-48.5531,78.8,83.0,40.0,11.5,BR,1615672073.0
240,pavlodar,52.3,76.95,-11.2,77.0,0.0,4.47,KZ,1615672074.0
241,kabin buri,13.9511,101.7177,79.23,78.0,0.0,3.2,TH,1615672074.0
242,bonavista,48.6499,-53.1147,37.99,60.0,95.0,5.75,CA,1615672075.0
243,thompson,55.7435,-97.8558,19.4,49.0,20.0,11.5,CA,1615671812.0
244,sambava,-14.2667,50.1667,76.5,78.0,88.0,10.31,MG,1615672076.0
245,araouane,18.9048,-3.5265,73.67,32.0,25.0,9.93,ML,1615672076.0
246,dunkirk,51.05,2.3667,43.0,75.0,92.0,4.0,FR,1615672077.0
247,general roca,-39.0333,-67.5833,91.4,19.0,0.0,5.75,AR,1615672077.0
248,yazman,29.1212,71.7446,70.03,32.0,0.0,7.58,PK,1615672078.0
249,lewisporte,49.2499,-55.0482,33.8,55.0,75.0,5.75,CA,1615672079.0
250,mount pleasant,32.7941,-79.8626,69.01,42.0,1.0,3.44,US,1615672079.0
251,ulaangom,49.9811,92.0667,-0.99,56.0,5.0,5.12,MN,1615672080.0
252,maneromango,-7.1988,38.7848,78.8,83.0,20.0,3.44,TZ,1615672080.0
253,igarka,67.4667,86.5833,-20.85,96.0,51.0,8.16,RU,1615672081.0
254,laguna,38.421,-121.4238,64.99,42.0,1.0,9.22,US,1615671884.0
255,kaitangata,-46.2817,169.8464,62.01,69.0,1.0,1.99,NZ,1615672040.0
256,saint anthony,45.0205,-93.218,60.01,33.0,1.0,11.5,US,1615672082.0
257,rocha,-34.4833,-54.3333,61.61,72.0,12.0,5.66,UY,1615672082.0
258,ryotsu,38.0833,138.4333,46.4,93.0,75.0,18.41,JP,1615672083.0
259,kununurra,-15.7667,128.7333,78.8,100.0,75.0,3.44,AU,1615671943.0
260,berlevag,70.8578,29.0864,24.06,83.0,99.0,8.16,NO,1615672064.0
261,praia da vitoria,38.7333,-27.0667,60.01,94.0,75.0,23.44,PT,1615672051.0
262,ilulissat,69.2167,-51.1,8.6,72.0,75.0,16.11,GL,1615672034.0
263,zhuhai,22.2769,113.5678,69.8,83.0,40.0,6.91,CN,1615671980.0
264,brownsville,25.9018,-97.4975,81.0,57.0,40.0,21.85,US,1615672084.0
265,gazanjyk,39.2446,55.5154,22.53,67.0,0.0,2.93,TM,1615672085.0
266,acapulco,16.8634,-99.8901,84.2,74.0,1.0,12.66,MX,1615672002.0
267,pacific grove,36.6177,-121.9166,55.4,62.0,75.0,11.5,US,1615671853.0
268,ampanihy,-24.7,44.75,73.49,78.0,0.0,14.45,MG,1615672087.0
269,srednekolymsk,67.45,153.6833,-21.08,98.0,77.0,3.62,RU,1615671975.0
270,arman,59.7,150.1667,-3.06,73.0,1.0,6.71,RU,1615672088.0
271,poya,-21.35,165.15,79.7,70.0,87.0,5.99,NC,1615672088.0
272,strijen,51.7452,4.5508,45.0,80.0,77.0,7.0,NL,1615672089.0
273,sipe sipe,-17.45,-66.3833,71.6,37.0,40.0,6.91,BO,1615672089.0
274,alice springs,-23.7,133.8833,60.8,100.0,90.0,13.8,AU,1615672073.0
275,norman wells,65.282,-126.8329,-5.8,71.0,75.0,3.42,CA,1615671917.0
276,le marin,14.4721,-60.8697,80.6,65.0,0.0,10.36,MQ,1615672091.0
277,bethel,41.3712,-73.414,46.4,19.0,1.0,9.22,US,1615671897.0
278,kieta,-6.2167,155.6333,82.58,72.0,23.0,4.56,PG,1615672092.0
279,pevek,69.7008,170.3133,-3.57,97.0,100.0,8.08,RU,1615672092.0
280,lasa,46.6166,10.7002,50.0,75.0,0.0,6.91,IT,1615672093.0
281,wasco,35.5941,-119.341,64.99,33.0,1.0,10.29,US,1615672093.0
282,kerrville,30.0474,-99.1403,73.99,73.0,90.0,19.57,US,1615672094.0
283,namibe,-15.1961,12.1522,76.32,76.0,39.0,3.83,AO,1615672036.0
284,tongliao,43.6125,122.2653,34.38,87.0,0.0,8.32,CN,1615672094.0
285,pochutla,15.7432,-96.4661,89.6,43.0,40.0,10.36,MX,1615672095.0
286,umm kaddadah,13.6017,26.6876,78.85,12.0,30.0,17.05,SD,1615672095.0
287,taksimo,56.3444,114.8794,22.77,97.0,100.0,2.26,RU,1615671923.0
288,bengkulu,-3.8004,102.2655,75.9,79.0,100.0,3.85,ID,1615672097.0
289,leh,34.1667,77.5833,20.97,56.0,71.0,1.01,IN,1615672097.0
290,klaksvik,62.2266,-6.589,41.0,93.0,75.0,35.68,FO,1615672098.0
291,beipiao,41.7919,120.7792,35.26,92.0,0.0,3.78,CN,1615672098.0
292,jacareacanga,-6.2222,-57.7528,75.09,98.0,96.0,2.26,BR,1615672099.0
293,talnakh,69.4865,88.3972,-22.13,98.0,100.0,8.3,RU,1615671895.0
294,castro,-24.7911,-50.0119,68.81,70.0,33.0,1.97,BR,1615672027.0
295,kralendijk,12.15,-68.2667,84.2,65.0,75.0,13.8,BQ,1615672100.0
296,kropotkin,45.4375,40.5756,33.01,78.0,100.0,5.61,RU,1615672100.0
297,malinao,7.5917,124.6889,66.6,90.0,99.0,1.21,PH,1615672101.0
298,talara,-4.5772,-81.2719,84.2,61.0,20.0,11.5,PE,1615672101.0
299,caravelas,-17.7125,-39.2481,76.08,80.0,0.0,5.97,BR,1615671927.0
300,gobabis,-22.45,18.9667,71.65,53.0,34.0,0.49,NA,1615672102.0
301,narsaq,60.9167,-46.05,24.8,54.0,75.0,2.3,GL,1615671980.0
302,tambura,5.6,27.4667,75.34,56.0,60.0,2.1,SS,1615672103.0
303,toora-khem,52.4675,96.11,-4.13,81.0,88.0,11.65,RU,1615672103.0
304,okha,53.5739,142.9478,19.24,95.0,51.0,7.61,RU,1615672104.0
305,hualmay,-11.0964,-77.6139,75.4,73.0,5.0,7.43,PE,1615671871.0
306,jiangyou,31.7667,104.7167,61.48,68.0,100.0,2.3,CN,1615672105.0
307,oranjemund,-28.55,16.4333,66.25,83.0,0.0,4.34,NA,1615672105.0
308,ahipara,-35.1667,173.1667,68.04,59.0,1.0,4.88,NZ,1615671963.0
309,praia,14.9215,-23.5087,69.8,68.0,0.0,12.66,CV,1615672106.0
310,kazerun,29.6195,51.6541,52.57,58.0,2.0,1.77,IR,1615672107.0
311,timbiras,-4.2553,-43.9406,74.62,97.0,89.0,2.37,BR,1615672107.0
312,tual,-5.6667,132.75,82.18,75.0,100.0,10.31,ID,1615672108.0
313,myra,45.4358,12.1348,48.99,93.0,75.0,8.05,IT,1615672108.0
314,sibolga,1.7427,98.7792,76.03,88.0,100.0,3.58,ID,1615672033.0
315,los llanos de aridane,28.6585,-17.9182,64.4,68.0,90.0,6.91,ES,1615672068.0
316,vazante,-17.9869,-46.9078,72.16,89.0,72.0,4.07,BR,1615672109.0
317,mitu,1.1983,-70.1733,77.61,94.0,90.0,2.53,CO,1615672110.0
318,pedernales,18.0384,-71.744,78.22,69.0,14.0,2.8,DO,1615672110.0
319,weligama,5.9667,80.4167,75.13,89.0,97.0,8.14,LK,1615672111.0
320,tanete,-3.9443,119.7848,73.69,93.0,35.0,0.58,ID,1615672111.0
321,bilibino,68.0546,166.4372,-4.2,96.0,100.0,1.99,RU,1615671952.0
322,varkkallai,8.7341,76.7067,82.4,74.0,20.0,2.3,IN,1615672112.0
323,kautokeino,69.0125,23.0412,17.53,91.0,100.0,3.98,NO,1615672113.0
324,saint-joseph,-21.3667,55.6167,75.2,78.0,0.0,4.61,RE,1615672113.0
325,komsomolskiy,40.4272,71.7189,46.4,76.0,100.0,6.91,UZ,1615671933.0
326,palmer,42.1584,-72.3287,44.01,19.0,20.0,17.27,US,1615672114.0
327,tateyama,34.9833,139.8667,55.4,44.0,75.0,25.32,JP,1615672114.0
328,faya,18.3851,42.4509,66.2,45.0,0.0,4.7,SA,1615672115.0
329,dromolaxia,34.8761,33.586,55.0,82.0,20.0,5.75,CY,1615672115.0
330,parkent,41.2944,69.6764,33.8,93.0,90.0,9.22,UZ,1615672116.0
331,port hardy,50.6996,-127.4199,48.2,71.0,90.0,24.16,CA,1615671910.0
332,lata,40.1629,-8.3327,54.0,83.0,2.0,5.01,PT,1615672006.0
333,lotofaga,-13.9764,-171.8578,87.8,62.0,20.0,4.61,WS,1615672117.0
334,arraial do cabo,-22.9661,-42.0278,80.6,89.0,0.0,6.91,BR,1615671922.0
335,sibu,2.3,111.8167,75.2,94.0,40.0,3.44,MY,1615672118.0
336,pizarro,4.9533,-77.366,80.62,76.0,67.0,6.49,CO,1615672119.0
337,warmbad,-28.45,18.7333,75.49,29.0,2.0,10.69,NA,1615672119.0
338,rosario,-32.9468,-60.6393,88.0,37.0,0.0,5.75,AR,1615671900.0
339,kavieng,-2.5744,150.7967,82.94,64.0,8.0,3.56,PG,1615672071.0
340,yate,51.5407,-2.4184,44.01,82.0,40.0,5.01,GB,1615672120.0
341,touros,-5.1989,-35.4608,82.4,69.0,40.0,16.11,BR,1615671875.0
342,maraba,-5.3686,-49.1178,77.0,100.0,75.0,1.61,BR,1615672121.0
343,klamath falls,42.2249,-121.7817,60.01,24.0,1.0,3.56,US,1615672122.0
344,avera,33.194,-82.5271,78.8,47.0,90.0,4.61,US,1615672122.0
345,san cristobal,7.7669,-72.225,78.8,65.0,75.0,2.3,VE,1615672055.0
346,mau,25.95,83.55,68.14,48.0,0.0,6.15,IN,1615672123.0
347,mount darwin,-16.7725,31.5838,64.98,87.0,28.0,3.15,ZW,1615672032.0
348,dalbandin,28.8947,64.4101,63.45,51.0,15.0,5.64,PK,1615672124.0
349,saldanha,-33.0117,17.9442,68.0,83.0,99.0,3.44,ZA,1615671962.0
350,bubaque,11.2833,-15.8333,78.13,65.0,87.0,11.68,GW,1615672048.0
351,anadyr,64.75,177.4833,26.6,80.0,20.0,15.66,RU,1615671950.0
352,puerto del rosario,28.5004,-13.8627,66.2,77.0,75.0,17.27,ES,1615672125.0
353,jumla,29.2747,82.1838,38.88,62.0,0.0,3.27,NP,1615672126.0
354,vardo,70.3705,31.1107,25.63,89.0,100.0,8.19,NO,1615672126.0
355,gombong,-7.6072,109.5142,76.19,81.0,96.0,2.17,ID,1615672127.0
356,sault sainte marie,46.5168,-84.3333,42.8,61.0,1.0,17.27,CA,1615672127.0
357,mweka,-4.85,21.5667,70.59,81.0,100.0,2.3,CD,1615672128.0
358,abu samrah,35.3029,37.1841,49.64,57.0,0.0,3.74,SY,1615672128.0
359,kutum,14.2,24.6667,67.57,18.0,81.0,6.89,SD,1615672066.0
360,coos bay,43.3665,-124.2179,55.99,71.0,90.0,16.11,US,1615672129.0
361,karasburg,-28.0167,18.75,72.66,27.0,32.0,9.84,NA,1615672130.0
362,vysokogornyy,50.1167,139.15,21.42,95.0,61.0,2.33,RU,1615672130.0
363,cayenne,4.9333,-52.3333,80.01,83.0,0.0,2.3,GF,1615671955.0
364,aksarka,66.5606,67.7975,10.9,89.0,96.0,11.21,RU,1615672104.0
365,saurimo,-9.6608,20.3916,65.57,93.0,80.0,2.51,AO,1615672131.0
366,zheleznodorozhnyy,55.7503,38.0042,28.4,86.0,90.0,8.95,RU,1615672132.0
367,pangnirtung,66.1451,-65.7125,-13.94,99.0,99.0,1.63,CA,1615672132.0
368,flinders,-34.5833,150.8552,64.99,90.0,100.0,5.99,AU,1615672006.0
369,camapua,-19.5314,-54.0439,77.5,77.0,37.0,1.3,BR,1615672133.0
370,shimonoseki,33.95,130.95,46.4,87.0,40.0,4.61,JP,1615672134.0
371,duobao,30.67,112.6895,55.0,87.0,0.0,4.5,CN,1615672134.0
372,bacolod,10.6667,122.95,76.24,87.0,90.0,5.55,PH,1615672135.0
373,paharpur,32.1038,70.9724,64.02,66.0,14.0,5.53,PK,1615672135.0
374,greytown,-29.0642,30.5928,62.15,71.0,0.0,2.55,ZA,1615672136.0
375,isangel,-19.55,169.2667,80.4,76.0,99.0,12.71,VU,1615671946.0
376,albanel,48.8832,-72.4487,21.2,53.0,100.0,8.05,CA,1615672136.0
377,gat,31.61,34.7642,55.99,81.0,0.0,3.2,IL,1615672083.0
378,praya,14.9215,-23.5087,69.8,68.0,0.0,12.66,CV,1615672137.0
379,moose factory,51.2585,-80.6094,26.6,74.0,90.0,13.8,CA,1615672138.0
380,ponta delgada,37.7333,-25.6667,59.0,94.0,75.0,17.27,PT,1615671924.0
381,daru,-9.0763,143.2092,80.02,85.0,100.0,0.85,PG,1615672069.0
382,viedma,-40.8135,-62.9967,77.32,29.0,0.0,10.6,AR,1615672139.0
383,vigrestad,58.5667,5.7,37.99,95.0,35.0,5.57,NO,1615672140.0
384,hami,42.8,93.45,50.74,31.0,1.0,7.29,CN,1615672058.0
385,beloha,-25.1667,45.05,74.1,76.0,20.0,16.71,MG,1615672141.0
386,abu ghosh,31.8059,35.1093,55.99,82.0,0.0,1.14,IL,1615672141.0
387,bon air,37.5249,-77.5578,63.0,20.0,1.0,5.75,US,1615672142.0
388,ust-maya,60.4167,134.5333,21.04,93.0,100.0,9.57,RU,1615672142.0
389,coihaique,-45.5752,-72.0662,73.4,33.0,0.0,5.75,CL,1615672083.0
390,longyearbyen,78.2186,15.6401,-4.94,93.0,93.0,4.85,SJ,1615671880.0
391,kapit,2.0167,112.9333,71.78,99.0,52.0,0.49,MY,1615672143.0
392,puerto penasco,31.3167,-113.5333,59.0,59.0,0.0,11.99,MX,1615672144.0
393,nouakchott,18.0858,-15.9785,73.4,38.0,0.0,11.5,MR,1615672144.0
394,santa cruz,-17.8,-63.1667,89.6,51.0,40.0,6.91,BO,1615672048.0
395,kalmar,56.6616,16.3616,36.0,100.0,90.0,3.04,SE,1615672145.0
396,korhogo,9.45,-5.6333,82.47,18.0,89.0,2.13,CI,1615672146.0
397,tautira,-17.7333,-149.15,87.8,66.0,20.0,6.91,PF,1615672125.0
398,baiao,-2.7906,-49.6717,75.43,96.0,93.0,1.59,BR,1615672146.0
399,novobirilyussy,56.9514,90.6661,4.71,89.0,100.0,13.47,RU,1615672147.0
400,khani,41.9563,42.9566,42.8,52.0,0.0,21.85,GE,1615672086.0
401,carnarvon,-24.8667,113.6333,80.6,61.0,3.0,11.5,AU,1615671953.0
402,mujiayingzi,42.1167,118.7833,34.81,58.0,77.0,5.68,CN,1615672148.0
403,kenai,60.5544,-151.2583,15.8,56.0,1.0,4.63,US,1615672148.0
404,talcahuano,-36.7167,-73.1167,60.8,82.0,40.0,9.22,CL,1615671926.0
405,freeport,40.6576,-73.5832,48.0,25.0,1.0,11.5,US,1615671933.0
406,walvis bay,-22.9575,14.5053,64.99,88.0,100.0,4.61,NA,1615672150.0
407,noshiro,40.2039,140.0242,43.43,88.0,100.0,5.7,JP,1615672150.0
408,san vicente,-26.6167,-54.1333,75.38,45.0,0.0,4.7,AR,1615672151.0
409,quatre cocos,-20.2078,57.7625,80.6,83.0,40.0,6.91,MU,1615672151.0
410,santa isabel,-23.3156,-46.2214,78.8,69.0,40.0,10.36,BR,1615672152.0
411,watrous,51.6668,-105.4679,39.2,70.0,0.0,3.44,CA,1615672152.0
412,shingu,33.7333,135.9833,43.86,79.0,0.0,5.86,JP,1615672153.0
413,zalantun,48.0,122.7167,33.58,72.0,19.0,1.88,CN,1615672153.0
414,teahupoo,-17.8333,-149.2667,87.8,66.0,20.0,6.91,PF,1615672154.0
415,bahir dar,11.5936,37.3908,77.58,24.0,95.0,5.7,ET,1615672154.0
416,bethanien,-26.502,17.1583,73.44,33.0,44.0,4.0,NA,1615672155.0
417,westport,41.1415,-73.3579,46.99,36.0,1.0,14.97,US,1615671883.0
418,setermoen,68.861,18.3486,26.6,86.0,90.0,6.38,NO,1615672156.0
419,aizawl,23.7333,92.7167,55.81,61.0,11.0,3.04,IN,1615672083.0
420,aran,40.6253,46.9756,32.0,93.0,90.0,9.22,AZ,1615672156.0
421,waingapu,-9.6567,120.2641,77.85,86.0,75.0,1.57,ID,1615672157.0
422,luwuk,-0.9516,122.7875,76.75,85.0,15.0,1.23,ID,1615672157.0
423,lamu,-2.2717,40.902,78.8,83.0,1.0,6.91,KE,1615672158.0
424,troitskoye,52.9821,84.6757,-9.9,99.0,69.0,6.73,RU,1615672158.0
425,birao,10.2849,22.7882,83.95,14.0,72.0,6.53,CF,1615672159.0
426,san juan de los morros,9.9115,-67.3538,87.8,59.0,100.0,9.22,VE,1615672159.0
427,grand-santi,4.25,-54.3833,76.93,85.0,10.0,3.15,GF,1615672160.0
428,santiago del estero,-27.7951,-64.2615,80.55,46.0,47.0,6.06,AR,1615672074.0
429,mangrol,21.1167,70.1167,75.0,62.0,0.0,13.38,IN,1615672161.0
430,vila,42.0304,-8.1588,46.0,88.0,37.0,1.68,PT,1615672162.0
431,nabire,-3.3667,135.4833,75.2,88.0,98.0,3.2,ID,1615671981.0
432,axim,4.8699,-2.2405,80.4,83.0,100.0,7.65,GH,1615671977.0
433,dwarka,22.2394,68.9678,75.6,79.0,0.0,12.3,IN,1615672163.0
434,inuvik,68.3499,-133.7218,-5.8,59.0,39.0,3.44,CA,1615672163.0
435,grand-lahou,5.1367,-5.0242,80.98,82.0,100.0,7.4,CI,1615672164.0
436,nieuw amsterdam,5.8833,-55.0833,80.6,78.0,40.0,6.91,SR,1615672164.0
437,fairview,40.8126,-73.999,50.0,18.0,1.0,10.36,US,1615672165.0
438,olinda,-8.0089,-34.8553,80.6,65.0,40.0,8.05,BR,1615672165.0
439,borogontsy,62.6683,131.1683,6.19,96.0,100.0,6.22,RU,1615672166.0
440,terney,45.0503,136.6092,33.73,62.0,100.0,8.08,RU,1615672166.0
441,santa fe,-31.6333,-60.7,87.01,53.0,51.0,3.0,AR,1615672167.0
442,turayf,31.6725,38.6637,50.0,57.0,0.0,6.91,SA,1615672168.0
443,de aar,-30.6497,24.0123,70.61,44.0,1.0,9.64,ZA,1615672168.0
444,revda,56.801,59.9303,14.0,52.0,0.0,15.66,RU,1615672169.0
445,kaifeng,34.7911,114.3483,48.2,87.0,90.0,4.47,CN,1615672169.0
446,jalu,29.0331,21.5482,62.69,35.0,68.0,12.82,LY,1615672162.0
447,raga,8.4596,25.678,77.79,33.0,50.0,0.87,SS,1615672170.0
448,gwadar,25.1216,62.3254,72.21,88.0,0.0,3.83,PK,1615672170.0
449,tuatapere,-46.1333,167.6833,66.0,60.0,0.0,8.01,NZ,1615672159.0
450,aklavik,68.2191,-135.0107,-7.6,64.0,1.0,4.61,CA,1615672000.0
451,port-gentil,-0.7193,8.7815,78.8,94.0,20.0,3.44,GA,1615671910.0
452,roald,62.5833,6.1333,39.0,75.0,0.0,4.61,NO,1615672172.0
453,nome,64.5011,-165.4064,8.6,66.0,75.0,23.02,US,1615672041.0
454,sucua,-2.4667,-78.1667,75.13,93.0,77.0,1.72,EC,1615672173.0
455,mehamn,71.0357,27.8492,22.62,88.0,100.0,6.78,NO,1615672173.0
456,sakakah,29.9697,40.2064,57.2,35.0,0.0,7.29,SA,1615672174.0
457,rosarito,32.3333,-117.0333,57.2,72.0,75.0,19.57,MX,1615672174.0
458,clyde river,70.4692,-68.5914,-5.8,84.0,75.0,24.16,CA,1615672122.0
459,koslan,63.4564,48.8989,20.08,91.0,100.0,10.67,RU,1615671959.0
460,mandiana,10.6333,-8.6833,81.72,17.0,100.0,2.42,GN,1615672176.0
461,sao joao da barra,-21.6403,-41.0511,80.6,78.0,0.0,11.5,BR,1615672177.0
462,sheridan,44.8333,-106.9173,50.0,37.0,90.0,4.61,US,1615672177.0
463,turukhansk,65.8167,87.9833,-30.77,98.0,50.0,6.93,RU,1615672178.0
464,comodoro rivadavia,-45.8667,-67.5,62.6,63.0,40.0,11.5,AR,1615671902.0
465,tucuman,-26.8241,-65.2226,71.6,88.0,75.0,8.05,AR,1615672008.0
466,dimapur,25.9,93.7333,71.94,41.0,73.0,2.8,IN,1615672179.0
467,yairipok,24.6667,94.0667,56.93,61.0,10.0,1.16,IN,1615672180.0
468,alofi,-19.0595,-169.9187,82.4,74.0,44.0,4.61,NU,1615672084.0
469,hastings,50.8552,0.5729,39.99,66.0,68.0,8.01,GB,1615672180.0
470,nanakuli,21.3906,-158.1547,75.2,73.0,75.0,8.05,US,1615672181.0
471,surt,31.2089,16.5887,60.84,64.0,100.0,21.83,LY,1615672181.0
472,concordia,-31.393,-58.0209,86.0,48.0,20.0,6.91,AR,1615672182.0
473,sao filipe,14.8961,-24.4956,71.1,75.0,0.0,4.85,CV,1615671996.0
474,haines junction,60.7522,-137.5108,5.0,47.0,92.0,12.66,CA,1615672088.0
475,agaro,7.85,36.65,65.89,61.0,48.0,3.02,ET,1615672183.0
476,sept-iles,50.2001,-66.3821,24.8,36.0,40.0,18.41,CA,1615672022.0
477,onguday,50.75,86.15,-6.61,88.0,0.0,2.64,RU,1615672184.0
478,sao felix do xingu,-6.6447,-51.995,73.36,98.0,82.0,2.68,BR,1615671640.0
479,ancud,-41.8697,-73.8203,66.0,63.0,0.0,6.91,CL,1615672127.0
480,kattivakkam,13.2167,80.3167,75.2,88.0,20.0,2.3,IN,1615672185.0
481,yamada,39.4667,141.95,45.72,83.0,100.0,16.28,JP,1615672068.0
482,azovo,54.6997,73.0237,-7.6,77.0,66.0,2.24,RU,1615672186.0
483,husavik,66.0449,-17.3389,21.2,79.0,20.0,9.22,IS,1615672156.0
484,porbandar,21.6422,69.6093,74.88,65.0,0.0,13.35,IN,1615671910.0
485,caibarien,22.5206,-79.4669,78.8,50.0,40.0,13.8,CU,1615672187.0
486,san andres,12.5847,-81.7006,84.2,65.0,20.0,11.5,CO,1615672188.0
487,ukiah,39.1502,-123.2078,64.4,36.0,1.0,3.44,US,1615672049.0
488,ler,8.3018,30.1418,87.33,27.0,68.0,5.01,SS,1615672188.0
489,brasilia de minas,-16.2064,-44.4333,69.3,88.0,0.0,3.67,BR,1615672189.0
490,adre,13.4667,22.2,77.63,15.0,27.0,13.04,TD,1615672011.0
491,teguldet,57.3064,88.1667,3.0,91.0,100.0,12.95,RU,1615672190.0
492,seoul,37.5683,126.9778,37.4,93.0,0.0,3.44,KR,1615672080.0
493,dauriya,49.9333,116.8667,29.21,72.0,2.0,10.71,RU,1615672190.0
494,raglan,-37.8,174.8833,66.0,66.0,0.0,7.0,NZ,1615672191.0
495,illapel,-31.6308,-71.1653,71.96,55.0,38.0,6.46,CL,1615671971.0
496,bela vista,-22.1089,-56.5211,84.96,51.0,72.0,1.39,BR,1615672192.0
497,hailar,49.2,119.7,26.06,73.0,15.0,13.85,CN,1615672192.0
498,bundaberg,-24.85,152.35,75.99,100.0,75.0,5.75,AU,1615672193.0
499,kysyl-syr,63.8986,122.7617,8.08,92.0,100.0,9.8,RU,1615672193.0
500,ixtapa,20.7,-105.2,77.0,69.0,1.0,13.8,MX,1615672152.0
501,itarema,-2.9248,-39.9167,78.51,82.0,84.0,10.22,BR,1615672194.0
502,safaga,26.7292,33.9365,64.4,32.0,0.0,11.5,EG,1615672195.0
503,parole,38.9796,-76.5305,54.0,24.0,1.0,6.91,US,1615672195.0
504,burnie,-41.0667,145.9167,53.01,66.0,0.0,3.0,AU,1615671935.0
505,churapcha,62.0025,132.4325,10.65,96.0,100.0,3.22,RU,1615672196.0
506,birnin kebbi,12.4539,4.1975,79.63,19.0,14.0,6.24,NG,1615672197.0
507,labuhan,-6.8844,112.2051,77.38,83.0,100.0,5.59,ID,1615671931.0
508,yablochnyy,47.1661,142.0661,23.0,93.0,100.0,4.47,RU,1615672198.0
509,black river,18.0264,-77.8487,82.99,65.0,40.0,18.41,JM,1615672198.0
510,upington,-28.4478,21.2561,82.4,42.0,14.0,8.05,ZA,1615672199.0
511,bontang,0.1333,117.5,77.4,86.0,92.0,4.61,ID,1615672071.0
512,moche,-8.1711,-79.0092,73.4,78.0,20.0,9.22,PE,1615672111.0
513,kannur,11.8675,75.3576,77.47,84.0,0.0,5.77,IN,1615672200.0
514,eureka,40.8021,-124.1637,55.99,63.0,7.0,10.0,US,1615672038.0
515,ovre ardal,61.3167,7.8,23.74,85.0,96.0,3.02,NO,1615672201.0
516,tara,56.8944,74.371,5.83,97.0,98.0,6.17,RU,1615672201.0
517,tatawin,32.9297,10.4518,55.4,82.0,100.0,9.22,TN,1615672203.0
518,shache,38.4167,77.2406,47.57,33.0,99.0,3.89,CN,1615672203.0
519,huarmey,-10.0681,-78.1522,76.01,73.0,2.0,9.28,PE,1615672204.0
520,rabo de peixe,37.8,-25.5833,59.0,94.0,75.0,17.27,PT,1615672204.0
521,chapais,49.7834,-74.8492,15.8,57.0,90.0,11.5,CA,1615672110.0
522,isabela,6.7085,121.9711,75.2,100.0,40.0,1.14,PH,1615672205.0
523,sarkand,45.41,79.9186,21.9,94.0,100.0,1.99,KZ,1615672046.0
524,polyarnyy,69.1989,33.4478,21.2,86.0,75.0,2.24,RU,1615672206.0
525,turangi,-39.0,175.9333,75.0,44.0,0.0,1.01,NZ,1615672206.0
526,dawson creek,55.7666,-120.2362,33.8,80.0,20.0,8.05,CA,1615672207.0
527,atar,20.5169,-13.0499,69.69,11.0,0.0,8.21,MR,1615671983.0
528,alexandria,31.2156,29.9553,59.0,67.0,40.0,6.91,EG,1615672097.0
529,shirokovskiy,58.8424,57.7832,7.0,46.0,100.0,1.99,RU,1615672208.0
530,boa vista,2.8197,-60.6733,82.4,61.0,40.0,5.75,BR,1615672208.0
531,staryy nadym,65.6118,72.6842,10.89,94.0,90.0,11.83,RU,1615672002.0
532,san pedro de ycuamandiyu,-24.0917,-57.0764,88.7,34.0,56.0,3.58,PY,1615672209.0
533,champerico,14.3,-91.9167,86.0,74.0,40.0,9.22,GT,1615672210.0
534,dunedin,-45.8742,170.5036,63.0,72.0,0.0,3.0,NZ,1615672176.0
535,aykhal,66.0,111.5,-0.99,95.0,100.0,17.09,RU,1615671994.0
536,le port,-20.9373,55.2919,77.0,73.0,0.0,16.11,RE,1615672211.0
537,severo-yeniseyskiy,60.3725,93.0408,1.33,89.0,100.0,12.41,RU,1615672211.0
538,mikun,62.3547,50.0771,20.23,92.0,100.0,11.5,RU,1615672212.0
539,darhan,49.4867,105.9228,39.6,44.0,100.0,13.29,MN,1615672213.0
540,uppsala,60.0,17.75,35.01,86.0,90.0,1.14,SE,1615672213.0
541,hlobyne,49.3878,33.2596,34.81,96.0,100.0,8.12,UA,1615672215.0
542,aripuana,-9.1667,-60.6333,76.14,96.0,99.0,2.53,BR,1615672215.0
543,zhanakorgan,43.9098,67.2495,22.93,94.0,100.0,14.32,KZ,1615672216.0
544,manado,1.487,124.8455,71.6,100.0,20.0,1.14,ID,1615672216.0
545,luanda,-8.8368,13.2343,82.4,78.0,75.0,4.61,AO,1615672217.0
546,grand gaube,-20.0064,57.6608,78.01,81.0,100.0,3.0,MU,1615672217.0
547,vao,-22.6667,167.4833,76.35,78.0,83.0,18.97,NC,1615672218.0
548,hushitai,41.9322,123.5114,28.4,86.0,0.0,4.47,CN,1615672218.0
549,svetlogorsk,52.6333,29.7333,33.91,95.0,95.0,8.86,BY,1615672219.0
550,kalabo,-14.97,22.6814,66.96,94.0,39.0,4.7,ZM,1615672220.0
551,baia de aries,46.3833,23.2833,34.0,93.0,1.0,10.36,RO,1615672220.0
552,honiara,-9.4333,159.95,77.43,86.0,100.0,2.1,SB,1615672142.0
553,mount gambier,-37.8333,140.7667,41.0,93.0,40.0,5.75,AU,1615671954.0
554,dumas,35.8656,-101.9732,64.0,100.0,40.0,10.36,US,1615672222.0
555,dakar,14.6937,-17.4441,71.6,60.0,2.0,9.22,SN,1615672222.0
