,City,Lat,Lng,Max Temp,Humidity,Cloudiness,Wind Speed,Country,Date
0,hasaki,35.7333,140.8333,45.0,57.0,20.0,3.44,JP,1615420026.0
1,pelym,61.0108,61.9978,-20.7,87.0,0.0,5.17,RU,1615420027.0
2,limon,10.0,-83.0333,82.4,74.0,75.0,12.66,CR,1615419925.0
3,lebu,-37.6167,-73.65,59.45,83.0,85.0,6.62,CL,1615419872.0
4,rikitea,-23.1203,-134.9692,78.69,75.0,8.0,17.29,PF,1615420029.0
5,bertoua,4.5833,13.6833,69.46,88.0,100.0,3.22,CM,1615420030.0
6,jamestown,42.097,-79.2353,60.8,27.0,1.0,12.64,US,1615420031.0
7,ponta do sol,32.6667,-17.1,60.8,72.0,40.0,10.36,PT,1615419940.0
8,ribeira grande,38.5167,-28.7,58.64,87.0,100.0,12.84,PT,1615420032.0
9,bambous virieux,-20.3428,57.7575,78.8,78.0,40.0,11.5,MU,1615420033.0
10,mehamn,71.0357,27.8492,18.46,89.0,100.0,13.42,NO,1615420034.0
11,el vigia,8.6219,-71.6506,75.74,76.0,62.0,4.52,VE,1615419865.0
12,cherskiy,68.75,161.3,-6.88,81.0,9.0,19.06,RU,1615419904.0
13,banamba,13.55,-7.45,77.36,18.0,0.0,10.76,ML,1615420036.0
14,svetlogorsk,52.6333,29.7333,19.78,94.0,73.0,4.74,BY,1615420037.0
15,richards bay,-28.783,32.0377,71.87,92.0,0.0,2.77,ZA,1615420038.0
16,dwarka,22.2394,68.9678,73.09,82.0,0.0,7.52,IN,1615420038.0
17,kostomuksha,64.571,30.5767,1.06,88.0,0.0,8.81,RU,1615420039.0
18,bandarbeyla,9.4942,50.8122,75.85,82.0,33.0,10.09,SO,1615420040.0
19,isangel,-19.55,169.2667,84.2,65.0,40.0,5.75,VU,1615419911.0
20,yar-sale,66.8333,70.8333,-30.37,82.0,0.0,5.26,RU,1615420042.0
21,punta arenas,-53.15,-70.9167,46.4,57.0,40.0,20.71,CL,1615420042.0
22,najran,17.4924,44.1277,64.4,24.0,0.0,2.3,SA,1615420043.0
23,maridi,4.9158,29.4742,77.16,37.0,5.0,5.77,SS,1615420044.0
24,setermoen,68.861,18.3486,-4.0,84.0,2.0,3.44,NO,1615420045.0
25,mindif,10.3976,14.4363,75.47,17.0,75.0,1.32,CM,1615420046.0
26,bengkulu,-3.8004,102.2655,75.11,88.0,22.0,5.53,ID,1615419899.0
27,hithadhoo,-0.6,73.0833,77.99,83.0,100.0,3.4,MV,1615419862.0
28,trincomalee,8.5711,81.2335,81.01,77.0,98.0,12.8,LK,1615420047.0
29,luderitz,-26.6481,15.1594,67.62,77.0,0.0,10.78,NA,1615420048.0
30,mataura,-46.1927,168.8643,55.99,69.0,12.0,1.99,NZ,1615420049.0
31,ushuaia,-54.8,-68.3,46.4,53.0,75.0,11.5,AR,1615419979.0
32,sawtell,-30.3833,153.1,77.0,78.0,90.0,4.61,AU,1615420050.0
33,sinnamary,5.3833,-52.95,77.65,85.0,94.0,12.73,GF,1615420051.0
34,blagoyevo,63.3667,47.9167,13.6,96.0,100.0,5.23,RU,1615420052.0
35,klaksvik,62.2266,-6.589,37.4,93.0,20.0,5.75,FO,1615420052.0
36,ust-ilimsk,58.0006,102.6619,10.72,94.0,99.0,4.25,RU,1615420053.0
37,bredasdorp,-34.5322,20.0403,64.0,95.0,100.0,8.28,ZA,1615420054.0
38,kaitangata,-46.2817,169.8464,57.99,65.0,2.0,7.0,NZ,1615420055.0
39,hilo,19.7297,-155.09,78.8,73.0,75.0,9.22,US,1615420055.0
40,nowa deba,50.4297,21.7508,27.0,42.0,0.0,1.99,PL,1615420056.0
41,hermosillo,29.0667,-110.9667,78.01,20.0,99.0,5.99,MX,1615419855.0
42,saldanha,-33.0117,17.9442,64.54,95.0,83.0,7.29,ZA,1615420058.0
43,souillac,-20.5167,57.5167,78.8,78.0,40.0,11.5,MU,1615420053.0
44,tynda,55.1667,124.7167,6.22,90.0,71.0,1.74,RU,1615420059.0
45,saint-philippe,-21.3585,55.7679,75.2,73.0,0.0,5.75,RE,1615420014.0
46,hervey bay,-25.2986,152.8535,84.0,59.0,37.0,4.0,AU,1615420060.0
47,broken hill,-31.95,141.4333,68.0,68.0,0.0,10.36,AU,1615420061.0
48,rong kwang,18.339,100.3174,75.99,55.0,10.0,1.12,TH,1615420062.0
49,vagamo,61.8751,9.0967,24.31,91.0,100.0,15.48,NO,1615420062.0
50,cidreira,-30.1811,-50.2056,69.57,77.0,28.0,3.74,BR,1615420063.0
51,nalut,30.3333,10.85,59.68,64.0,81.0,18.23,LY,1615420064.0
52,butaritari,3.0707,172.7902,81.39,77.0,85.0,10.76,KI,1615420065.0
53,geraldton,-28.7667,114.6,73.4,88.0,93.0,8.05,AU,1615419928.0
54,mar del plata,-38.0023,-57.5575,71.6,73.0,0.0,10.36,AR,1615420067.0
55,lazaro cardenas,17.9583,-102.2,78.55,65.0,0.0,8.32,MX,1615420067.0
56,port alfred,-33.5906,26.891,68.0,92.0,85.0,1.99,ZA,1615419861.0
57,khatanga,71.9667,102.5,-16.2,87.0,100.0,23.6,RU,1615420069.0
58,thompson,55.7435,-97.8558,24.8,86.0,90.0,9.22,CA,1615419961.0
59,denpasar,-8.65,115.2167,78.8,89.0,40.0,2.3,ID,1615420070.0
60,kapaa,22.0752,-159.319,73.4,94.0,75.0,10.36,US,1615420071.0
61,silver city,32.7701,-108.2803,60.8,10.0,1.0,21.85,US,1615420071.0
62,puerto ayora,-0.7393,-90.3518,79.0,89.0,40.0,8.01,EC,1615419972.0
63,mitu,1.1983,-70.1733,73.18,94.0,99.0,0.18,CO,1615419898.0
64,fortuna,40.5982,-124.1573,52.0,66.0,75.0,9.22,US,1615420073.0
65,nikolskoye,59.7035,30.7861,8.01,65.0,0.0,4.47,RU,1615419875.0
66,comodoro rivadavia,-45.8667,-67.5,59.0,25.0,42.0,33.38,AR,1615420075.0
67,puerto escondido,15.85,-97.0667,84.2,70.0,20.0,6.91,MX,1615420075.0
68,severo-kurilsk,50.6789,156.125,31.6,98.0,100.0,32.37,RU,1615419862.0
69,yellowknife,62.456,-114.3525,1.4,55.0,20.0,3.44,CA,1615420077.0
70,raudeberg,61.9875,5.1352,39.2,70.0,90.0,26.46,NO,1615420077.0
71,riyadh,24.6877,46.7219,68.0,28.0,20.0,8.05,SA,1615419967.0
72,cockburn town,21.4612,-71.1419,73.13,85.0,100.0,24.54,TC,1615420028.0
73,lavrentiya,65.5833,-171.0,-15.0,81.0,0.0,6.24,RU,1615420075.0
74,jalu,29.0331,21.5482,61.83,59.0,88.0,9.93,LY,1615420080.0
75,albany,42.6001,-73.9662,51.8,40.0,75.0,13.8,US,1615419906.0
76,lorengau,-2.0226,147.2712,84.52,64.0,100.0,5.66,PG,1615420081.0
77,haines junction,60.7522,-137.5108,42.8,26.0,68.0,6.91,CA,1615420082.0
78,necochea,-38.5473,-58.7368,73.99,57.0,100.0,7.0,AR,1615420083.0
79,barrow,71.2906,-156.7887,-5.8,65.0,1.0,20.71,US,1615419866.0
80,tuktoyaktuk,69.4541,-133.0374,8.6,85.0,90.0,6.91,CA,1615420011.0
81,uribia,11.7139,-72.266,79.63,62.0,71.0,14.23,CO,1615420084.0
82,tiksi,71.6872,128.8694,-21.69,84.0,75.0,27.47,RU,1615420085.0
83,talnakh,69.4865,88.3972,-28.68,83.0,100.0,5.82,RU,1615420086.0
84,nidzica,53.3605,20.4275,17.6,86.0,0.0,1.14,PL,1615420087.0
85,alice springs,-23.7,133.8833,87.01,73.0,23.0,5.75,AU,1615420067.0
86,bluff,-46.6,168.3333,55.99,69.0,12.0,1.99,NZ,1615420088.0
87,hami,42.8,93.45,44.98,50.0,68.0,7.36,CN,1615419827.0
88,busselton,-33.65,115.3333,72.0,91.0,100.0,1.99,AU,1615420090.0
89,saskylakh,71.9167,114.0833,-15.36,84.0,96.0,20.49,RU,1615419977.0
90,oriximina,-1.7656,-55.8661,75.65,92.0,99.0,4.56,BR,1615420091.0
91,schattdorf,46.8655,8.6547,42.8,56.0,75.0,2.3,CH,1615420092.0
92,nurmijarvi,60.4641,24.8073,15.8,67.0,20.0,9.22,FI,1615420093.0
93,san cristobal,7.7669,-72.225,75.2,83.0,75.0,2.3,VE,1615420094.0
94,east london,-33.0153,27.9116,73.8,71.0,8.0,10.02,ZA,1615420095.0
95,codrington,-38.2667,141.9667,65.7,59.0,95.0,6.44,AU,1615420095.0
96,santa ines,-3.6667,-45.38,74.55,96.0,97.0,2.95,BR,1615420096.0
97,hamilton,39.1834,-84.5333,68.0,34.0,1.0,12.66,US,1615419831.0
98,kodiak,57.79,-152.4072,35.6,51.0,75.0,12.66,US,1615419908.0
99,murud,18.3258,72.965,74.16,58.0,0.0,4.59,IN,1615420098.0
100,wageningen,51.9667,5.6667,44.01,93.0,75.0,18.41,NL,1615419966.0
101,new norfolk,-42.7826,147.0587,69.01,49.0,2.0,1.99,AU,1615420099.0
102,qaanaaq,77.484,-69.3632,5.99,78.0,1.0,5.57,GL,1615420010.0
103,beyneu,45.3167,55.2,27.37,81.0,72.0,12.55,KZ,1615420101.0
104,komsomolskiy,40.4272,71.7189,44.6,87.0,90.0,4.61,UZ,1615420102.0
105,los llanos de aridane,28.6585,-17.9182,64.4,63.0,90.0,14.97,ES,1615420102.0
106,narsaq,60.9167,-46.05,24.8,74.0,90.0,1.14,GL,1615419888.0
107,inhapi,-9.2214,-37.7486,78.62,68.0,61.0,10.67,BR,1615420104.0
108,kroya,-7.6331,109.2461,77.74,83.0,58.0,4.03,ID,1615420104.0
109,avarua,-21.2078,-159.775,82.4,83.0,75.0,6.91,CK,1615420106.0
110,yunyang,33.4474,112.7142,53.01,38.0,100.0,2.26,CN,1615420107.0
111,sao joao da barra,-21.6403,-41.0511,75.27,91.0,98.0,7.61,BR,1615420108.0
112,san rafael,-34.6177,-68.3301,82.62,35.0,69.0,6.51,AR,1615419837.0
113,vaini,-21.2,-175.2,84.2,58.0,20.0,5.75,TO,1615420109.0
114,cangzhou,38.3167,116.8667,53.01,64.0,100.0,6.73,CN,1615420110.0
115,paamiut,61.994,-49.6678,21.87,97.0,94.0,9.71,GL,1615420111.0
116,carnarvon,-24.8667,113.6333,75.2,88.0,90.0,3.44,AU,1615419999.0
117,phek,25.6667,94.5,44.2,87.0,26.0,1.88,IN,1615420112.0
118,pevek,69.7008,170.3133,-17.57,80.0,0.0,18.1,RU,1615420113.0
119,provideniya,64.3833,-173.3,-7.6,71.0,0.0,4.47,RU,1615419921.0
120,ayan,56.45,138.1667,17.15,89.0,100.0,5.57,RU,1615420114.0
121,sao filipe,14.8961,-24.4956,69.4,78.0,98.0,10.07,CV,1615419885.0
122,batagay-alyta,67.8006,130.4114,-3.96,81.0,100.0,6.13,RU,1615420116.0
123,esperance,-33.8667,121.9,66.2,82.0,40.0,12.66,AU,1615419867.0
124,upernavik,72.7868,-56.1549,7.9,82.0,39.0,3.09,GL,1615419899.0
125,cervo,43.6702,-7.4101,54.0,89.0,99.0,5.99,ES,1615420118.0
126,suba,10.8438,121.0102,81.12,77.0,29.0,26.73,PH,1615420119.0
127,bethel,41.3712,-73.414,48.2,53.0,1.0,6.91,US,1615420120.0
128,san patricio,28.017,-97.5169,75.2,69.0,75.0,32.21,US,1615420121.0
129,atuona,-9.8,-139.0333,79.63,79.0,35.0,16.35,PF,1615419961.0
130,umm kaddadah,13.6017,26.6876,78.33,15.0,0.0,18.25,SD,1615419915.0
131,ancud,-41.8697,-73.8203,50.0,76.0,75.0,10.36,CL,1615419982.0
132,cape town,-33.9258,18.4232,64.99,100.0,75.0,1.14,ZA,1615420123.0
133,berlevag,70.8578,29.0864,17.24,92.0,100.0,20.38,NO,1615419981.0
134,meridian,43.6121,-116.3915,53.6,28.0,1.0,6.91,US,1615419905.0
135,genhe,50.7833,121.5167,11.82,94.0,21.0,2.71,CN,1615420125.0
136,moengo,5.6167,-54.4,73.63,95.0,99.0,3.27,SR,1615420127.0
137,pitimbu,-7.4706,-34.8086,78.8,89.0,0.0,5.75,BR,1615420128.0
138,gharghur,35.9242,14.4519,55.0,82.0,20.0,10.36,MT,1615420129.0
139,port lincoln,-34.7333,135.8667,67.6,74.0,16.0,9.6,AU,1615420129.0
140,nelson bay,-32.7167,152.15,79.0,65.0,75.0,10.36,AU,1615420130.0
141,hondo,32.45,130.2,50.0,81.0,0.0,3.44,JP,1615420131.0
142,portland,45.5234,-122.6762,57.0,54.0,20.0,6.67,US,1615419734.0
143,kahului,20.8947,-156.47,80.6,69.0,40.0,16.11,US,1615419958.0
144,xam nua,20.4197,104.0439,61.79,91.0,68.0,2.53,LA,1615420133.0
145,port pirie,-33.1833,138.0167,68.0,88.0,13.0,10.36,AU,1615420134.0
146,anloga,5.7947,0.8973,84.2,79.0,20.0,11.5,GH,1615420134.0
147,bilma,18.6853,12.9164,77.67,14.0,0.0,6.46,NE,1615420135.0
148,srebrenica,44.1064,19.2969,24.8,100.0,90.0,2.3,BA,1615420136.0
149,carauari,-4.8828,-66.8958,73.58,95.0,98.0,1.23,BR,1615420137.0
150,durango,24.8333,-104.8333,77.14,16.0,2.0,20.42,MX,1615419904.0
151,changde,29.0464,111.6783,48.9,89.0,75.0,2.33,CN,1615420083.0
152,sesheke,-17.4759,24.2968,65.79,66.0,1.0,3.47,ZM,1615420138.0
153,northam,51.0333,-4.2167,52.0,90.0,100.0,18.01,GB,1615420139.0
154,hobart,-42.8794,147.3294,69.01,55.0,20.0,5.75,AU,1615420140.0
155,kshenskiy,51.8408,37.7136,-3.78,89.0,95.0,6.89,RU,1615420141.0
156,lokosovo,61.1333,74.8167,-20.15,86.0,81.0,6.78,RU,1615420141.0
157,benjamin aceval,-24.9667,-57.5667,77.0,61.0,0.0,5.75,PY,1615420142.0
158,saint george,37.1041,-113.5841,48.99,46.0,90.0,23.02,US,1615419967.0
159,laguna,38.421,-121.4238,53.6,58.0,75.0,6.91,US,1615419931.0
160,airai,-8.9266,125.4092,66.99,97.0,99.0,0.56,TL,1615420145.0
161,ternate,0.8,127.4,82.71,72.0,44.0,4.25,ID,1615420145.0
162,filadelfia,39.9523,-75.1638,57.2,58.0,1.0,11.5,US,1615419874.0
163,sao jose do rio pardo,-21.5956,-46.8886,73.4,83.0,0.0,1.14,BR,1615420147.0
164,kruisfontein,-34.0033,24.7314,66.99,88.0,100.0,1.01,ZA,1615419956.0
165,saint-francois,46.4154,3.9054,48.2,61.0,90.0,5.75,FR,1615420148.0
166,chuy,-33.6971,-53.4616,66.25,84.0,15.0,6.31,UY,1615420149.0
167,kautokeino,69.0125,23.0412,8.65,92.0,100.0,24.9,NO,1615420150.0
168,ballina,-28.8667,153.5667,73.4,94.0,90.0,5.75,AU,1615420150.0
169,belz,47.6751,-3.168,53.01,97.0,100.0,7.0,FR,1615420152.0
170,cabo san lucas,22.8909,-109.9124,75.2,53.0,40.0,11.5,MX,1615420033.0
171,chapais,49.7834,-74.8492,42.8,56.0,90.0,14.97,CA,1615420065.0
172,sanmenxia,34.7747,111.1814,48.54,85.0,100.0,2.71,CN,1615420154.0
173,calama,-22.4667,-68.9333,64.4,45.0,20.0,26.46,CL,1615420042.0
174,jinka,5.65,36.65,70.9,46.0,48.0,4.05,ET,1615420155.0
175,chardara,41.2547,67.9692,41.38,69.0,83.0,5.95,KZ,1615420157.0
176,mandera,3.9366,41.867,76.57,68.0,0.0,9.57,KE,1615420158.0
177,coahuayana,18.7333,-103.6833,80.6,50.0,40.0,17.27,MX,1615420158.0
178,vila franca do campo,37.7167,-25.4333,59.0,94.0,40.0,16.11,PT,1615420159.0
179,longyearbyen,78.2186,15.6401,23.0,86.0,75.0,8.05,SJ,1615420160.0
180,tongren,27.7172,109.1853,48.58,85.0,97.0,1.05,CN,1615420161.0
181,igarka,67.4667,86.5833,-35.25,83.0,15.0,1.14,RU,1615420161.0
182,kavieng,-2.5744,150.7967,84.7,62.0,98.0,5.44,PG,1615420162.0
183,akyab,20.15,92.9,68.65,71.0,0.0,4.56,MM,1615420163.0
184,hargeysa,9.56,44.065,62.02,92.0,37.0,2.62,SO,1615420164.0
185,cayenne,4.9333,-52.3333,80.01,89.0,75.0,5.75,GF,1615420164.0
186,bani,18.2833,-70.3333,73.99,90.0,40.0,4.0,DO,1615420165.0
187,novyy oskol,50.7631,37.8691,15.01,92.0,88.0,8.25,RU,1615420166.0
188,saint-augustin,51.226,-58.6502,29.05,96.0,99.0,17.18,CA,1615419975.0
189,yulara,-25.2406,130.9889,80.6,57.0,84.0,6.44,AU,1615419919.0
190,hazro,33.9091,72.4921,62.01,68.0,100.0,7.0,PK,1615420168.0
191,rio claro,-22.4114,-47.5614,73.4,83.0,0.0,1.14,BR,1615420169.0
192,chiredzi,-21.05,31.6667,67.35,81.0,0.0,1.72,ZW,1615420170.0
193,almaznyy,48.0448,40.045,19.4,73.0,0.0,8.95,RU,1615420171.0
194,hermanus,-34.4187,19.2345,64.0,95.0,99.0,8.68,ZA,1615420171.0
195,kisac,45.3503,19.7286,35.01,68.0,0.0,1.14,RS,1615420172.0
196,kurilsk,45.2333,147.8833,25.05,90.0,53.0,22.26,RU,1615420173.0
197,westport,41.1415,-73.3579,44.01,70.0,1.0,3.44,US,1615420089.0
198,victoria,22.2855,114.1577,69.01,83.0,95.0,18.39,HK,1615420140.0
199,beboto,8.2668,16.939,77.04,61.0,76.0,5.59,TD,1615420175.0
200,tasiilaq,65.6145,-37.6368,14.0,85.0,0.0,6.91,GL,1615420175.0
201,bukachacha,52.9833,116.9167,11.73,92.0,10.0,1.68,RU,1615420176.0
202,noyon,49.5833,3.0,46.0,93.0,90.0,20.71,FR,1615420177.0
203,illapel,-31.6308,-71.1653,64.47,61.0,95.0,1.88,CL,1615419971.0
204,soyo,-6.1349,12.3689,80.26,84.0,79.0,6.62,AO,1615420178.0
205,half moon bay,37.4636,-122.4286,55.0,66.0,75.0,12.66,US,1615419949.0
206,castro,-24.7911,-50.0119,60.89,88.0,17.0,3.24,BR,1615419944.0
207,birao,10.2849,22.7882,80.98,16.0,0.0,4.43,CF,1615420180.0
208,nanchong,30.7951,106.0847,51.64,90.0,87.0,2.42,CN,1615420181.0
209,yaan,7.3833,8.5667,80.13,72.0,100.0,10.0,NG,1615420110.0
210,padang,-0.9492,100.3543,73.4,94.0,20.0,2.3,ID,1615420182.0
211,nang rong,14.6377,102.7914,81.0,100.0,19.0,5.44,TH,1615420183.0
212,lundazi,-12.2929,33.1782,65.14,96.0,100.0,4.47,ZM,1615420184.0
213,ciudad bolivar,8.1222,-63.5497,85.01,45.0,71.0,12.64,VE,1615420185.0
214,egvekinot,66.3167,-179.1667,-27.15,87.0,39.0,2.93,RU,1615419965.0
215,tahta,26.7693,31.5021,66.2,24.0,0.0,6.91,EG,1615420187.0
216,margate,51.3813,1.3862,52.0,87.0,100.0,8.01,GB,1615420188.0
217,dingle,10.9995,122.6711,79.16,78.0,84.0,13.71,PH,1615420188.0
218,yazd,31.8972,54.3675,55.4,28.0,0.0,4.61,IR,1615420096.0
219,cedar city,37.6775,-113.0619,32.0,86.0,90.0,19.57,US,1615420190.0
220,muravlenko,63.7898,74.523,-31.76,85.0,0.0,6.4,RU,1615420191.0
221,port elizabeth,-33.918,25.5701,66.2,88.0,40.0,12.66,ZA,1615420191.0
222,mattru,7.6244,-11.8332,76.8,91.0,91.0,2.86,SL,1615420192.0
223,beringovskiy,63.05,179.3167,-3.12,83.0,51.0,2.06,RU,1615420149.0
224,severo-yeniseyskiy,60.3725,93.0408,10.06,96.0,100.0,4.7,RU,1615420193.0
225,santa cruz cabralia,-16.2781,-39.0247,77.0,73.0,0.0,6.91,BR,1615420194.0
226,lakefield,43.6775,-95.1717,37.4,100.0,90.0,4.61,US,1615420195.0
227,kloulklubed,7.0419,134.2556,77.0,94.0,90.0,15.77,PW,1615420196.0
228,karema,-6.8205,30.4389,70.09,84.0,94.0,4.47,TZ,1615420196.0
229,taguatinga,-12.3857,-46.5711,72.3,92.0,83.0,4.34,BR,1615420197.0
230,ossora,59.2353,163.0719,4.26,89.0,81.0,2.55,RU,1615420198.0
231,limbang,4.75,115.0,77.0,100.0,75.0,3.44,MY,1615420199.0
232,gorin,51.1983,136.6669,24.49,93.0,30.0,4.45,RU,1615420199.0
233,kieta,-6.2167,155.6333,85.46,60.0,37.0,3.87,PG,1615420000.0
234,van buren,35.4368,-94.3483,73.4,53.0,90.0,12.66,US,1615419958.0
235,san vicente,-26.6167,-54.1333,65.17,69.0,0.0,5.14,AR,1615420201.0
236,mahebourg,-20.4081,57.7,78.8,78.0,40.0,11.5,MU,1615419982.0
237,killorglin,52.1,-9.7833,49.15,82.0,100.0,31.12,IE,1615420203.0
238,itarema,-2.9248,-39.9167,78.8,82.0,100.0,10.13,BR,1615420204.0
239,port hardy,50.6996,-127.4199,46.4,71.0,20.0,10.36,CA,1615420117.0
240,tessalit,20.1986,1.0114,67.68,22.0,95.0,9.64,ML,1615420206.0
241,sakakah,29.9697,40.2064,68.0,22.0,0.0,16.11,SA,1615420206.0
242,jiangyou,31.7667,104.7167,50.54,88.0,73.0,1.39,CN,1615420207.0
243,vallenar,-28.5708,-70.7581,64.63,72.0,65.0,3.38,CL,1615420140.0
244,labuhan,-6.8844,112.2051,78.82,84.0,76.0,5.73,ID,1615420208.0
245,belaya gora,68.5333,146.4167,0.37,87.0,70.0,10.78,RU,1615420209.0
246,chicama,-7.8447,-79.1469,75.2,83.0,40.0,9.22,PE,1615420152.0
247,price,39.5994,-110.8107,44.6,18.0,90.0,6.26,US,1615420210.0
248,marovoay,-16.1,46.6333,77.0,88.0,40.0,9.22,MG,1615420211.0
249,gizo,-8.103,156.8419,83.01,70.0,73.0,1.03,SB,1615420212.0
250,marawi,7.9986,124.2928,75.0,96.0,100.0,5.01,PH,1615420213.0
251,chateaubelair,13.2833,-61.25,78.8,83.0,40.0,14.97,VC,1615420213.0
252,naze,28.3667,129.4833,69.8,64.0,20.0,14.97,JP,1615420030.0
253,djibo,14.1022,-1.6306,80.69,16.0,0.0,11.05,BF,1615420215.0
254,bartica,6.4,-58.6167,78.8,83.0,20.0,4.61,GY,1615420216.0
255,aklavik,68.2191,-135.0107,15.8,73.0,90.0,9.22,CA,1615419992.0
256,pore,5.7272,-71.9947,80.76,50.0,99.0,4.76,CO,1615420217.0
257,antonina,-25.4286,-48.7119,60.8,94.0,0.0,4.61,BR,1615420218.0
258,waipawa,-41.4122,175.5153,63.0,77.0,75.0,21.85,NZ,1615420219.0
259,klyavlino,54.2649,52.0267,-14.22,90.0,73.0,7.25,RU,1615420220.0
260,snasa,64.2457,12.3778,30.2,55.0,0.0,17.27,NO,1615420220.0
261,kiunga,-6.1219,141.2906,80.13,87.0,100.0,1.54,PG,1615420221.0
262,pacific grove,36.6177,-121.9166,54.0,70.0,100.0,4.0,US,1615420222.0
263,berezovyy,51.6667,135.7,24.96,91.0,17.0,2.55,RU,1615420223.0
264,tarauaca,-8.1614,-70.7656,70.48,96.0,100.0,2.08,BR,1615420223.0
265,longyan,25.1072,117.0225,62.17,76.0,55.0,1.88,CN,1615420224.0
266,maceio,-9.6658,-35.7353,77.0,88.0,0.0,8.05,BR,1615420194.0
267,te anau,-45.4167,167.7167,57.92,54.0,24.0,1.97,NZ,1615420225.0
268,torbay,47.6666,-52.7314,30.99,80.0,1.0,19.57,CA,1615420226.0
269,vilhena,-12.7406,-60.1458,71.6,94.0,40.0,11.5,BR,1615420124.0
270,zhigansk,66.7697,123.3711,-9.54,90.0,100.0,4.83,RU,1615420228.0
271,santa maria,-29.6842,-53.8069,71.6,73.0,20.0,2.3,BR,1615419962.0
272,kupang,-10.1667,123.5833,78.8,100.0,20.0,3.44,ID,1615420229.0
273,sinjar,36.3209,41.8754,54.27,65.0,98.0,20.38,IQ,1615420230.0
274,henties bay,-22.116,14.2845,64.8,83.0,0.0,5.53,NA,1615420178.0
275,tucuma,-0.1833,-50.05,73.67,94.0,100.0,3.83,BR,1615420231.0
276,lubango,-14.9172,13.4925,62.22,78.0,64.0,3.58,AO,1615420091.0
277,makakilo city,21.3469,-158.0858,80.6,69.0,20.0,9.22,US,1615420233.0
278,clyde river,70.4692,-68.5914,-11.2,77.0,20.0,5.75,CA,1615420034.0
279,iqaluit,63.7506,-68.5145,-14.8,64.0,20.0,6.91,CA,1615420235.0
280,maldonado,-34.6667,-54.9167,69.8,78.0,0.0,9.22,UY,1615420235.0
281,katsuura,35.1333,140.3,51.01,45.0,0.0,1.01,JP,1615420236.0
282,goderich,43.7501,-81.7165,55.4,54.0,100.0,9.22,CA,1615420237.0
283,vila velha,-20.3297,-40.2925,75.2,94.0,40.0,4.61,BR,1615420238.0
284,nabire,-3.3667,135.4833,81.93,68.0,97.0,3.53,ID,1615420239.0
285,pasighat,28.0667,95.3333,66.4,56.0,87.0,3.42,IN,1615420239.0
286,kalat,29.0225,66.5916,50.36,47.0,0.0,10.07,PK,1615420240.0
287,lodja,-3.4833,23.4333,70.68,90.0,62.0,1.25,CD,1615420241.0
288,zhangjiakou,40.81,114.8794,43.75,73.0,95.0,1.05,CN,1615420012.0
289,nantucket,41.2835,-70.0995,41.0,81.0,1.0,5.75,US,1615420242.0
290,ojinaga,29.5667,-104.4167,86.0,11.0,1.0,9.22,MX,1615420153.0
291,faanui,-16.4833,-151.75,82.15,71.0,82.0,9.95,PF,1615420006.0
292,leningradskiy,69.3833,178.4167,-13.07,78.0,0.0,5.28,RU,1615420244.0
293,acapulco,16.8634,-99.8901,82.4,78.0,20.0,12.66,MX,1615419960.0
294,smithers,54.7804,-127.1743,37.4,32.0,1.0,1.81,CA,1615420246.0
295,trairi,-3.2778,-39.2689,78.87,82.0,99.0,8.97,BR,1615420247.0
296,roebourne,-20.7833,117.1333,90.41,48.0,0.0,10.02,AU,1615420247.0
297,pasinler,39.9803,41.6764,32.0,100.0,75.0,5.75,TR,1615420248.0
298,buala,-8.145,159.5921,85.57,66.0,77.0,5.95,SB,1615420249.0
299,zagan,51.6176,15.3149,33.01,68.0,75.0,3.0,PL,1615420250.0
300,kungurtug,50.5994,97.5228,9.97,86.0,0.0,2.33,RU,1615420250.0
301,vestmanna,62.1564,-7.1664,37.4,93.0,20.0,5.75,FO,1615420251.0
302,sechura,-5.5569,-80.8222,82.24,55.0,22.0,16.46,PE,1615420252.0
303,gryazovets,58.88,40.2525,-3.73,93.0,51.0,6.24,RU,1615420253.0
304,muros,42.7762,-9.0603,55.99,88.0,100.0,10.0,ES,1615420046.0
305,caravelas,-17.7125,-39.2481,77.52,80.0,52.0,7.96,BR,1615419999.0
306,mauraro,13.1494,123.5953,77.83,77.0,64.0,9.26,PH,1615420255.0
307,gandajika,-6.75,23.95,66.13,92.0,20.0,3.6,CD,1615420255.0
308,pervomayskiy,53.2485,40.2871,-10.07,89.0,0.0,4.61,RU,1615420256.0
309,kavaratti,10.5669,72.642,82.36,73.0,61.0,6.64,IN,1615420257.0
310,qaqortoq,60.7167,-46.0333,24.8,74.0,90.0,1.14,GL,1615420258.0
311,sitka,57.0531,-135.33,39.2,70.0,90.0,12.66,US,1615420098.0
312,georgetown,5.4112,100.3354,81.0,78.0,20.0,4.61,MY,1615420259.0
313,dikson,73.5069,80.5464,-9.09,90.0,100.0,22.88,RU,1615420260.0
314,djougou,9.7085,1.666,81.5,43.0,54.0,5.1,BJ,1615420260.0
315,randolph,35.7001,-79.8164,68.0,24.0,1.0,4.61,US,1615420261.0
316,seoul,37.5683,126.9778,44.6,87.0,97.0,2.3,KR,1615420035.0
317,bonavista,48.6499,-53.1147,30.99,74.0,68.0,8.05,CA,1615420263.0
318,la palma,33.8464,-118.0467,59.0,71.0,90.0,8.05,US,1615420264.0
319,mayo,38.8876,-76.5119,57.0,50.0,1.0,4.61,US,1615420265.0
320,atambua,-9.1061,124.8925,77.07,84.0,98.0,0.51,ID,1615420266.0
321,alyangula,-13.8483,136.4192,84.2,79.0,60.0,5.75,AU,1615419974.0
322,aykhal,66.0,111.5,-17.63,84.0,50.0,13.8,RU,1615420267.0
323,santarem,-2.4431,-54.7083,77.0,94.0,40.0,2.3,BR,1615420268.0
324,vinstra,61.5952,9.7523,26.56,92.0,100.0,12.84,NO,1615420268.0
325,norman wells,65.282,-126.8329,6.8,61.0,75.0,8.05,CA,1615420269.0
326,whitianga,-36.8333,175.7,73.0,87.0,78.0,4.0,NZ,1615420270.0
327,cody,44.5263,-109.0565,36.0,55.0,75.0,12.66,US,1615419979.0
328,kayerkan,69.3497,87.7602,-29.22,82.0,89.0,6.53,RU,1615420271.0
329,panlaitan,12.1191,119.8486,81.52,68.0,18.0,11.03,PH,1615420272.0
330,sorland,67.667,12.6934,28.2,92.0,21.0,21.5,NO,1615420273.0
331,grand gaube,-20.0064,57.6608,75.99,81.0,5.0,4.0,MU,1615420275.0
332,noormarkku,61.5927,21.8685,8.6,72.0,0.0,6.91,FI,1615420275.0
333,banda aceh,5.5577,95.3222,77.38,69.0,40.0,13.13,ID,1615420276.0
334,chokurdakh,70.6333,147.9167,-2.13,91.0,100.0,10.6,RU,1615420277.0
335,ulaangom,49.9811,92.0667,3.56,93.0,62.0,1.59,MN,1615420038.0
336,nadym,65.5333,72.5167,-34.19,84.0,0.0,2.57,RU,1615420279.0
337,arraial do cabo,-22.9661,-42.0278,77.0,88.0,40.0,5.75,BR,1615420279.0
338,nueve de julio,-35.4444,-60.8831,79.0,49.0,29.0,4.0,AR,1615420155.0
339,uberlandia,-18.9186,-48.2772,75.2,69.0,0.0,3.44,BR,1615420281.0
340,poum,-20.2333,164.0167,79.75,71.0,35.0,14.47,NC,1615420281.0
341,acajutla,13.5928,-89.8275,86.0,39.0,20.0,6.91,SV,1615420279.0
342,borinskoye,52.4569,39.3713,-3.44,91.0,0.0,4.05,RU,1615420283.0
343,bundaberg,-24.85,152.35,84.0,61.0,75.0,8.05,AU,1615420284.0
344,vao,-22.6667,167.4833,77.18,71.0,25.0,13.82,NC,1615420285.0
345,takoradi,4.8845,-1.7554,80.87,83.0,100.0,10.38,GH,1615420286.0
346,nouadhibou,20.931,-17.0347,62.65,77.0,4.0,26.96,MR,1615420286.0
347,vestmannaeyjar,63.4427,-20.2734,34.57,83.0,93.0,28.9,IS,1615420287.0
348,pervomayskoye,43.919,46.7102,31.41,83.0,99.0,10.51,RU,1615420288.0
349,lubao,14.9167,120.55,78.8,69.0,75.0,2.3,PH,1615420289.0
350,maracacume,-2.0428,-45.9592,74.52,96.0,100.0,2.48,BR,1615420289.0
351,prijepolje,43.3719,19.6406,24.8,100.0,90.0,2.3,RS,1615420290.0
352,havre-saint-pierre,50.2334,-63.5986,30.2,80.0,90.0,5.75,CA,1615420141.0
353,jennings,38.7192,-90.2604,66.2,63.0,90.0,20.71,US,1615420057.0
354,la reforma,25.0833,-108.05,84.99,41.0,81.0,5.99,MX,1615420292.0
355,dulce grande,23.0,-102.1667,78.8,8.0,75.0,5.75,MX,1615420293.0
356,otradnoye,59.7775,30.8181,8.01,65.0,0.0,4.47,RU,1615420294.0
357,never,46.9896,3.159,50.0,57.0,90.0,11.5,FR,1615420295.0
358,markova,48.6758,24.4138,23.14,96.0,81.0,1.57,UA,1615420295.0
359,tarakan,3.3,117.6333,77.95,85.0,100.0,7.36,ID,1615420296.0
360,luhyny,51.082,28.4006,25.2,88.0,49.0,4.0,UA,1615420297.0
361,gazanjyk,39.2446,55.5154,44.31,62.0,19.0,8.37,TM,1615420298.0
362,lavumisa,-27.31,31.892,75.2,94.0,0.0,1.14,SZ,1615420298.0
363,ciudad del maiz,22.4,-99.6,69.04,58.0,38.0,8.95,MX,1615420299.0
364,mutare,-18.9707,32.6709,64.76,96.0,30.0,1.88,ZW,1615420300.0
365,matay,28.419,30.7792,64.76,34.0,0.0,12.21,EG,1615420217.0
366,catuday,16.2923,119.8062,77.27,70.0,100.0,12.03,PH,1615420301.0
367,nosy varika,-20.5833,48.5333,75.52,84.0,20.0,0.67,MG,1615420267.0
368,jaciara,-15.9653,-54.9683,72.41,87.0,100.0,2.57,BR,1615420304.0
369,shache,38.4167,77.2406,41.16,63.0,8.0,0.89,CN,1615420304.0
370,san isidro,-12.1167,-77.05,80.6,57.0,0.0,12.66,PE,1615420305.0
371,stankov,49.5535,13.0698,32.0,100.0,40.0,4.61,CZ,1615420306.0
372,ahipara,-35.1667,173.1667,70.0,71.0,15.0,10.07,NZ,1615420307.0
373,soubre,5.7856,-6.6083,75.88,93.0,92.0,3.47,CI,1615420308.0
374,kachug,53.9606,105.8817,10.06,92.0,0.0,1.61,RU,1615420309.0
375,saint-joseph,-21.3667,55.6167,75.2,73.0,0.0,5.75,RE,1615420080.0
376,rosa zarate,0.3333,-79.4667,74.57,92.0,87.0,2.51,EC,1615420310.0
377,kazachinskoye,57.6953,93.2761,24.78,96.0,100.0,7.09,RU,1615420311.0
378,moose factory,51.2585,-80.6094,17.6,79.0,90.0,16.11,CA,1615420311.0
379,molodizhne,48.1773,32.6601,24.8,68.0,0.0,4.47,UA,1615420312.0
380,sorong,-0.8833,131.25,81.52,75.0,31.0,6.22,ID,1615420313.0
381,japura,-0.3167,102.35,72.66,95.0,57.0,0.36,ID,1615420314.0
382,namibe,-15.1961,12.1522,74.91,72.0,70.0,6.17,AO,1615420314.0
383,preobrazheniye,42.9019,133.9064,37.17,77.0,51.0,7.81,RU,1615420315.0
384,pinega,64.7001,43.3936,4.68,92.0,32.0,9.04,RU,1615420316.0
385,torrington,41.8007,-73.1212,44.01,74.0,1.0,3.0,US,1615420317.0
386,mudgee,-32.5943,149.5871,73.99,68.0,40.0,5.75,AU,1615420109.0
387,arlit,18.7369,7.3853,82.47,14.0,1.0,7.85,NE,1615420318.0
388,grafton,42.207,-71.6856,43.0,64.0,0.0,6.6,US,1615420246.0
389,channel-port aux basques,47.5702,-59.1367,28.62,95.0,66.0,9.31,CA,1615420319.0
390,flin flon,54.7682,-101.865,17.6,79.0,90.0,19.57,CA,1615420320.0
391,aranos,-24.1333,19.1167,69.39,22.0,0.0,2.51,NA,1615420321.0
392,muroto,33.2833,134.15,48.2,49.0,0.0,10.36,JP,1615420322.0
393,kem,64.9555,34.5793,1.36,87.0,0.0,10.42,RU,1615420322.0
394,tucupita,9.0622,-62.051,73.92,87.0,44.0,5.79,VE,1615420323.0
395,pochutla,15.7432,-96.4661,84.2,61.0,40.0,12.66,MX,1615420324.0
396,lompoc,34.6391,-120.4579,53.6,62.0,75.0,13.8,US,1615420067.0
397,baruun-urt,46.6806,113.2792,22.8,90.0,100.0,7.81,MN,1615420325.0
398,ous,60.9058,61.5186,-20.85,87.0,0.0,5.14,RU,1615420326.0
399,la macarena,2.1837,-73.7849,75.13,87.0,76.0,1.25,CO,1615420327.0
400,moerai,-22.4333,-151.3333,80.11,82.0,62.0,15.21,PF,1615420328.0
401,eureka,40.8021,-124.1637,52.0,72.0,96.0,8.99,US,1615420037.0
402,iaciara,-14.0958,-46.6317,70.38,88.0,19.0,1.1,BR,1615420329.0
403,ilulissat,69.2167,-51.1,17.6,67.0,90.0,2.3,GL,1615420330.0
404,saint-pierre,-21.3393,55.4781,75.2,73.0,0.0,5.75,RE,1615420331.0
405,alanya,36.5438,31.9998,51.8,87.0,20.0,4.61,TR,1615420332.0
406,nemuro,43.3236,145.575,33.8,51.0,20.0,5.75,JP,1615420333.0
407,breves,-1.6822,-50.4803,73.44,96.0,100.0,3.96,BR,1615420334.0
408,amapa,1.0,-52.0,70.74,98.0,100.0,2.62,BR,1615420334.0
409,pedernales,18.0384,-71.744,78.85,68.0,56.0,6.04,DO,1615420335.0
410,coihaique,-45.5752,-72.0662,44.6,81.0,90.0,5.75,CL,1615420061.0
411,raga,8.4596,25.678,74.64,20.0,33.0,1.52,SS,1615420337.0
412,livermore,37.6819,-121.768,53.01,81.0,90.0,8.05,US,1615420337.0
413,tromso,69.6496,18.957,23.0,50.0,0.0,19.57,NO,1615420142.0
414,nome,64.5011,-165.4064,-11.2,64.0,1.0,16.11,US,1615420240.0
415,lagoa,39.05,-27.9833,57.76,82.0,100.0,11.21,PT,1615420339.0
416,santiago de cuba,20.0247,-75.8219,77.0,69.0,40.0,12.66,CU,1615420340.0
417,aswan,24.0934,32.907,70.27,39.0,0.0,3.4,EG,1615420253.0
418,manuk mangkaw,4.8,119.85,82.81,73.0,100.0,8.7,PH,1615420341.0
419,kalemie,-5.9475,29.1947,70.54,83.0,100.0,0.72,CD,1615420342.0
420,biltine,14.5333,20.9167,77.16,15.0,0.0,11.74,TD,1615420343.0
421,manokwari,-0.8667,134.0833,81.81,74.0,100.0,8.08,ID,1615420343.0
422,sotik,-0.6833,35.1187,54.52,66.0,78.0,2.59,KE,1615420344.0
423,srednekolymsk,67.45,153.6833,-2.79,84.0,83.0,10.42,RU,1615420345.0
424,shadegan,30.6497,48.6647,62.6,72.0,0.0,6.93,IR,1615420346.0
425,yurimaguas,-5.9,-76.0833,75.13,84.0,57.0,1.34,PE,1615420347.0
426,limeira,-22.5647,-47.4017,78.8,53.0,0.0,3.44,BR,1615420347.0
427,boende,-0.2167,20.8667,72.0,91.0,52.0,2.19,CD,1615420348.0
428,kalmunai,7.4167,81.8167,75.45,84.0,57.0,1.72,LK,1615420349.0
429,alugan,12.2188,125.4808,79.25,82.0,100.0,17.02,PH,1615420350.0
430,wadi maliz,36.4681,8.5495,51.8,66.0,40.0,3.44,TN,1615420350.0
431,hun,29.1268,15.9477,63.3,45.0,100.0,7.31,LY,1615420351.0
432,sisimiut,66.9395,-53.6735,17.8,95.0,100.0,3.13,GL,1615420352.0
433,petropavlovsk-kamchatskiy,53.0452,158.6483,21.2,100.0,90.0,6.71,RU,1615420353.0
434,gualaquiza,-3.4,-78.55,65.03,86.0,86.0,0.83,EC,1615420353.0
435,mozarlandia,-14.7447,-50.5706,72.68,89.0,97.0,0.65,BR,1615420354.0
436,matagami,49.7502,-77.6328,41.0,93.0,90.0,4.61,CA,1615420356.0
437,aragats,40.4889,44.3528,44.6,81.0,75.0,6.91,AM,1615420356.0
438,namwala,-15.7504,26.4384,62.49,96.0,87.0,0.85,ZM,1615420357.0
439,diphu,25.8333,93.4333,63.23,63.0,2.0,2.3,IN,1615420358.0
440,bousse,12.6606,-1.8922,89.6,18.0,29.0,6.91,BF,1615420359.0
441,mariental,-24.6333,17.9667,67.62,39.0,0.0,14.14,NA,1615420359.0
442,santa isabel do rio negro,-0.4139,-65.0192,72.45,98.0,100.0,1.57,BR,1615420360.0
443,vikulovo,56.8167,70.6107,17.62,97.0,100.0,6.29,RU,1615420361.0
444,moron,-34.6534,-58.6198,77.0,68.0,10.0,3.0,AR,1615420362.0
445,apple valley,34.5008,-117.1859,46.0,70.0,41.0,4.0,US,1615420362.0
446,praia da vitoria,38.7333,-27.0667,60.01,100.0,90.0,9.86,PT,1615420363.0
447,kununurra,-15.7667,128.7333,80.6,100.0,90.0,4.61,AU,1615420364.0
448,strezhevoy,60.7333,77.5889,-16.6,83.0,0.0,6.71,RU,1615420365.0
449,the valley,18.217,-63.0578,78.8,73.0,75.0,9.22,AI,1615420365.0
450,mount isa,-20.7333,139.5,84.2,61.0,40.0,4.61,AU,1615420366.0
451,neijiang,29.5835,105.0622,53.24,83.0,69.0,3.27,CN,1615420367.0
452,loa janan,-0.583,117.095,78.17,77.0,83.0,1.68,ID,1615420368.0
453,tuatapere,-46.1333,167.6833,55.99,69.0,50.0,1.99,NZ,1615420369.0
454,adrar,20.5022,-10.0711,63.5,29.0,0.0,9.15,MR,1615420369.0
455,dzaoudzi,-12.7887,45.2699,78.8,78.0,0.0,10.36,YT,1615420370.0
456,essex,40.7834,-74.2163,46.99,70.0,75.0,8.05,US,1615420217.0
457,nambucca heads,-30.65,153.0,77.0,78.0,90.0,4.61,AU,1615420371.0
458,chitral,35.8462,71.7858,42.33,64.0,99.0,3.06,PK,1615420372.0
459,kyrylivka,46.3759,35.3675,32.7,85.0,100.0,22.62,UA,1615420373.0
460,ketchikan,55.3422,-131.6461,41.0,65.0,1.0,10.36,US,1615420374.0
461,hirara,24.8,125.2833,68.0,83.0,75.0,6.91,JP,1615420185.0
462,tiarei,-17.5333,-149.3333,87.8,62.0,75.0,5.75,PF,1615420375.0
463,naqadeh,36.9553,45.388,40.82,82.0,92.0,7.25,IR,1615420376.0
464,rocha,-34.4833,-54.3333,61.47,91.0,0.0,5.37,UY,1615420357.0
465,polunochnoye,60.8697,60.4153,-21.12,88.0,41.0,3.02,RU,1615420377.0
466,nesebar,42.7833,27.7333,41.0,93.0,90.0,10.36,BG,1615420378.0
467,lernapat,40.8163,44.3926,32.0,93.0,90.0,3.44,AM,1615420379.0
468,karasburg,-28.0167,18.75,63.55,60.0,0.0,9.31,NA,1615420380.0
469,malinovoye ozero,51.6753,79.7825,16.12,94.0,100.0,9.64,RU,1615420381.0
470,timmins,48.4669,-81.3331,39.2,100.0,90.0,5.75,CA,1615420382.0
471,wanaka,-44.7,169.15,60.01,68.0,59.0,3.0,NZ,1615420382.0
472,bilibino,68.0546,166.4372,-14.33,79.0,0.0,3.06,RU,1615420383.0
473,santa vitoria do palmar,-33.5189,-53.3681,66.56,83.0,4.0,5.99,BR,1615420384.0
474,saint-louis,16.3333,-15.0,73.4,28.0,0.0,2.3,SN,1615420385.0
475,juegang,32.3174,121.1855,50.0,91.0,100.0,10.18,CN,1615420386.0
476,champerico,14.3,-91.9167,86.0,70.0,75.0,9.22,GT,1615420386.0
477,anadyr,64.75,177.4833,-13.0,64.0,0.0,2.24,RU,1615420387.0
478,teluk nibung,3.001,99.8164,74.37,84.0,81.0,5.14,ID,1615420388.0
479,camacha,33.0833,-16.3333,60.8,72.0,75.0,8.05,PT,1615420389.0
480,hualmay,-11.0964,-77.6139,73.58,72.0,97.0,8.93,PE,1615420389.0
481,enterprise,36.0252,-115.2419,55.99,28.0,75.0,12.66,US,1615420390.0
482,labytnangi,66.6572,66.4183,-29.45,81.0,2.0,2.37,RU,1615420391.0
483,tazovskiy,67.4667,78.7,-30.1,86.0,8.0,4.88,RU,1615420392.0
484,beaufort,5.3473,115.7455,77.0,94.0,40.0,2.04,MY,1615420393.0
485,krasnaya gora,52.9995,31.6023,19.4,68.0,0.0,2.24,RU,1615420394.0
486,jieshi,22.8134,115.8257,68.0,75.0,75.0,1.01,CN,1615420395.0
487,namatanai,-3.6667,152.4333,85.53,61.0,100.0,1.74,PG,1615420395.0
488,yeniseysk,58.4497,92.1703,22.39,96.0,100.0,10.94,RU,1615420396.0
489,tura,25.5198,90.2201,66.85,60.0,1.0,4.5,IN,1615420099.0
490,juan de acosta,10.8281,-75.0334,80.6,74.0,0.0,14.97,CO,1615420398.0
491,shimoda,34.6667,138.95,51.8,43.0,40.0,9.22,JP,1615420398.0
492,dabakala,8.3667,-4.4333,76.14,82.0,91.0,9.13,CI,1615420399.0
493,xiuyan,40.2928,123.2744,39.38,77.0,100.0,3.29,CN,1615420400.0
494,ngunguru,-35.6167,174.5,69.6,84.0,4.0,7.09,NZ,1615420401.0
495,yangambi,0.8102,24.4336,70.93,89.0,65.0,2.53,CD,1615420401.0
496,weligama,5.9667,80.4167,75.9,79.0,100.0,12.21,LK,1615420402.0
497,buchanan,5.8808,-10.0467,78.8,94.0,40.0,5.93,LR,1615420403.0
498,sueyoshi,31.65,131.0167,50.0,87.0,20.0,5.75,JP,1615420404.0
499,bafilo,9.35,1.2667,75.97,53.0,31.0,5.68,TG,1615420404.0
500,buraydah,26.326,43.975,68.0,34.0,0.0,6.91,SA,1615420405.0
501,constitucion,-35.3333,-72.4167,61.75,94.0,33.0,6.51,CL,1615420256.0
502,korla,41.7597,86.1469,46.04,53.0,100.0,4.47,CN,1615420145.0
503,ginir,7.1333,40.7,59.04,60.0,0.0,3.47,ET,1615420407.0
504,mandalgarh,25.2,75.1,65.84,27.0,0.0,3.71,IN,1615420408.0
505,bako,5.7833,36.5667,70.79,48.0,64.0,1.95,ET,1615420408.0
506,abha,18.2164,42.5053,64.4,67.0,0.0,2.06,SA,1615420409.0
507,collie,-33.3667,116.15,70.0,85.0,100.0,7.0,AU,1615420410.0
508,grootfontein,-19.5667,18.1167,66.2,77.0,84.0,3.44,NA,1615420411.0
509,hofn,64.2539,-15.2082,39.56,71.0,75.0,9.62,IS,1615420411.0
510,sao jose do belmonte,-7.8614,-38.7597,78.71,52.0,80.0,0.78,BR,1615420413.0
511,flinders,-34.5833,150.8552,75.99,75.0,75.0,4.0,AU,1615420413.0
512,kyabe,9.4515,18.9449,80.65,16.0,0.0,5.08,TD,1615420414.0
513,buin,-33.7333,-70.75,73.4,46.0,0.0,5.75,CL,1615420415.0
514,silifke,36.3778,33.9344,58.98,57.0,86.0,3.49,TR,1615420210.0
515,ankeny,41.7297,-93.6058,68.0,72.0,75.0,26.46,US,1615420216.0
516,vaxjo,56.8777,14.8091,30.2,86.0,75.0,10.36,SE,1615420418.0
517,avera,33.194,-82.5271,66.2,34.0,1.0,4.61,US,1615420419.0
518,harper,4.375,-7.7169,79.32,88.0,100.0,5.61,LR,1615420419.0
519,motygino,58.1831,94.7592,20.17,97.0,100.0,6.38,RU,1615420420.0
520,tuy hoa,13.0833,109.3,74.21,87.0,70.0,4.05,VN,1615420421.0
521,quatre cocos,-20.2078,57.7625,78.8,78.0,40.0,11.5,MU,1615420422.0
522,de-kastri,51.4667,140.7833,25.27,93.0,100.0,3.65,RU,1615420422.0
523,varzea da palma,-17.5981,-44.7308,70.27,89.0,63.0,0.83,BR,1615420423.0
524,rach gia,10.0167,105.0833,77.0,88.0,76.0,5.75,VN,1615420424.0
525,labrea,-7.2586,-64.7981,73.45,95.0,91.0,2.84,BR,1615420425.0
526,ust-tsilma,65.441,52.1498,6.55,95.0,100.0,4.72,RU,1615420425.0
527,igoumenitsa,39.5039,20.2656,44.6,87.0,66.0,3.44,GR,1615420426.0
528,sola,-13.8833,167.55,80.6,83.0,90.0,4.61,VU,1615420427.0
529,kapit,2.0167,112.9333,74.16,94.0,100.0,1.3,MY,1615420331.0
530,honiara,-9.4333,159.95,81.09,75.0,99.0,1.01,SB,1615420428.0
531,whitehorse,60.7161,-135.0538,30.0,46.0,75.0,20.71,CA,1615420429.0
532,abramovka,51.1886,41.0202,-7.37,90.0,2.0,5.14,RU,1615420430.0
533,neuquen,-38.9516,-68.0591,78.8,31.0,0.0,16.11,AR,1615420156.0
534,dharchula,29.85,80.5333,51.62,45.0,9.0,8.1,IN,1615420431.0
535,peleduy,59.6289,112.7406,12.07,95.0,91.0,3.53,RU,1615420432.0
536,kyzyl-suu,42.3414,78.0056,35.33,75.0,76.0,7.36,KG,1615420433.0
537,fairbanks,64.8378,-147.7164,27.0,93.0,90.0,5.91,US,1615420275.0
538,portobelo,9.55,-79.65,81.0,66.0,52.0,5.01,PA,1615420434.0
539,farafenni,13.5667,-15.6,78.21,17.0,63.0,9.44,GM,1615420435.0
540,luanda,-8.8368,13.2343,82.4,78.0,40.0,8.05,AO,1615420436.0
541,pangnirtung,66.1451,-65.7125,-7.6,84.0,75.0,11.5,CA,1615420436.0
542,don sak,9.3168,99.6918,75.99,100.0,20.0,1.14,TH,1615420437.0
543,baracoa,20.3467,-74.4958,72.14,87.0,100.0,17.02,CU,1615420439.0
544,mangrol,21.1167,70.1167,70.95,86.0,0.0,8.59,IN,1615420439.0
545,virginia beach,36.8529,-75.978,62.6,39.0,1.0,10.36,US,1615420231.0
546,rawson,-43.3002,-65.1023,65.98,28.0,84.0,30.76,AR,1615420363.0
547,opuwo,-18.0607,13.84,70.38,39.0,62.0,3.42,NA,1615420441.0
548,alenquer,-1.9417,-54.7383,77.0,94.0,40.0,2.3,BR,1615420442.0
549,bathsheba,13.2167,-59.5167,78.8,65.0,20.0,17.27,BB,1615420443.0
550,daru,-9.0763,143.2092,84.45,72.0,100.0,7.02,PG,1615420443.0
551,melchor de mencos,17.0686,-89.1522,73.4,94.0,75.0,4.61,GT,1615420444.0
552,sobolevo,54.4299,31.8996,3.54,92.0,95.0,7.85,RU,1615420445.0
553,pisco,-13.7,-76.2167,77.0,69.0,75.0,16.11,PE,1615420447.0
554,brae,60.3964,-1.353,44.6,93.0,90.0,19.57,GB,1615420448.0
555,manggar,-2.8833,108.2667,78.35,83.0,81.0,5.66,ID,1615420448.0
556,lynn haven,30.2455,-85.6483,66.99,59.0,1.0,8.05,US,1615420227.0
557,atar,20.5169,-13.0499,62.62,30.0,0.0,7.67,MR,1615420450.0
558,olafsvik,64.8945,-23.7142,27.18,90.0,100.0,21.12,IS,1615420450.0
559,pandan,14.0453,124.1694,81.01,71.0,48.0,19.69,PH,1615420451.0
560,tecoanapa,16.5167,-98.75,81.88,66.0,6.0,10.49,MX,1615420452.0
561,beloha,-25.1667,45.05,71.85,73.0,0.0,3.67,MG,1615420453.0
562,huilong,31.8111,121.655,52.0,94.0,100.0,1.01,CN,1615420453.0
563,haikou,20.0458,110.3417,73.4,94.0,75.0,6.71,CN,1615420454.0
564,rantepao,-2.9701,119.8978,71.31,80.0,100.0,1.36,ID,1615420455.0
565,mayna,54.1135,47.6231,-12.96,91.0,86.0,7.76,RU,1615420456.0
566,juneau,58.3019,-134.4197,35.6,51.0,90.0,16.11,US,1615420285.0
567,ozark,37.0209,-93.206,66.0,69.0,99.0,15.35,US,1615420276.0
568,kalakamati,-20.5929,27.3121,68.94,49.0,28.0,5.64,BW,1615420458.0
569,byron bay,-28.65,153.6167,71.6,94.0,90.0,5.75,AU,1615420458.0
570,pula,44.8683,13.8481,37.4,75.0,0.0,6.91,HR,1615420459.0
571,palu,-0.8917,119.8707,79.54,74.0,98.0,1.72,ID,1615420162.0
572,shu,43.5983,73.7614,33.78,92.0,100.0,1.99,KZ,1615420460.0
573,zhezkazgan,47.8043,67.7144,18.7,97.0,75.0,11.21,KZ,1615420461.0
574,doha,25.2867,51.5333,71.6,49.0,0.0,9.22,QA,1615420238.0
575,springbok,-29.6643,17.8865,59.45,91.0,53.0,2.95,ZA,1615420462.0
576,baykit,61.67,96.37,5.85,91.0,100.0,2.24,RU,1615420381.0
577,magadan,59.5667,150.8,1.67,89.0,79.0,2.33,RU,1615420199.0
578,takapau,-40.0333,176.35,59.0,95.0,100.0,6.13,NZ,1615420464.0
579,ikot ekpene,5.1794,7.7108,78.62,83.0,99.0,5.61,NG,1615420465.0
580,maragogi,-9.0122,-35.2225,78.8,81.0,64.0,8.77,BR,1615420466.0
581,keflavik,64.0049,-22.5624,28.4,74.0,75.0,32.21,IS,1615420467.0
582,zaysan,47.4667,84.8667,28.65,88.0,75.0,3.09,KZ,1615420467.0
583,les cayes,18.2,-73.75,76.03,76.0,66.0,4.61,HT,1615420468.0
584,balabac,7.9868,117.0645,81.86,74.0,54.0,18.63,PH,1615420469.0
585,upington,-28.4478,21.2561,69.8,32.0,0.0,6.91,ZA,1615420470.0
586,cururupu,-1.8283,-44.8683,75.29,90.0,95.0,2.68,BR,1615420470.0
587,sur,22.5667,59.5289,77.07,39.0,0.0,4.99,OM,1615420471.0
588,vesoul,47.5833,5.8333,48.0,57.0,90.0,4.61,FR,1615420472.0
