,City,Lat,Lng,Max Temp,Humidity,Cloudiness,Wind Speed,Country,Date
0,isla vista,34.4133,-119.861,57.0,58.0,75.0,3.44,US,1615496015.0
1,qaanaaq,77.484,-69.3632,1.76,61.0,48.0,2.51,GL,1615496015.0
2,kapaa,22.0752,-159.319,73.4,88.0,40.0,6.91,US,1615496017.0
3,cherskiy,68.75,161.3,-13.56,76.0,0.0,5.08,RU,1615496017.0
4,ayan,56.45,138.1667,8.58,67.0,0.0,8.95,RU,1615496018.0
5,rikitea,-23.1203,-134.9692,79.43,78.0,100.0,14.12,PF,1615495842.0
6,borger,52.9233,6.7931,44.01,90.0,100.0,4.0,NL,1615496019.0
7,saint-philippe,-21.3585,55.7679,75.2,57.0,0.0,6.91,RE,1615496020.0
8,seymchan,62.8833,152.4333,-6.59,85.0,100.0,2.13,RU,1615496021.0
9,thompson,55.7435,-97.8558,3.2,51.0,40.0,6.91,CA,1615496022.0
10,vaini,-21.2,-175.2,77.0,73.0,75.0,6.91,TO,1615495855.0
11,half moon bay,37.4636,-122.4286,53.01,62.0,40.0,8.05,US,1615496023.0
12,hermanus,-34.4187,19.2345,68.0,69.0,87.0,5.99,ZA,1615495845.0
13,khatanga,71.9667,102.5,-16.19,93.0,100.0,20.04,RU,1615496024.0
14,egvekinot,66.3167,-179.1667,-23.26,97.0,35.0,1.9,RU,1615496025.0
15,atar,20.5169,-13.0499,69.64,17.0,34.0,11.48,MR,1615496026.0
16,codrington,-38.2667,141.9667,56.44,91.0,36.0,4.85,AU,1615496027.0
17,atuona,-9.8,-139.0333,79.88,66.0,8.0,9.46,PF,1615495853.0
18,busselton,-33.65,115.3333,62.01,95.0,100.0,1.01,AU,1615496028.0
19,bambous virieux,-20.3428,57.7575,80.6,78.0,40.0,8.05,MU,1615496030.0
20,tuatapere,-46.1333,167.6833,51.01,91.0,0.0,3.0,NZ,1615496032.0
21,grindavik,63.8424,-22.4338,35.6,87.0,90.0,19.57,IS,1615496032.0
22,maningrida,-12.0667,134.2667,75.22,90.0,53.0,6.15,AU,1615496033.0
23,butaritari,3.0707,172.7902,81.16,76.0,69.0,13.87,KI,1615496034.0
24,bluff,-46.6,168.3333,51.01,91.0,4.0,3.0,NZ,1615496035.0
25,bulgan,48.8125,103.5347,29.37,47.0,0.0,2.91,MN,1615496035.0
26,nagtipunan,16.2167,121.6,67.39,98.0,46.0,3.02,PH,1615496036.0
27,castro,-24.7911,-50.0119,72.59,69.0,27.0,2.57,BR,1615495850.0
28,arraial do cabo,-22.9661,-42.0278,82.4,83.0,20.0,14.97,BR,1615496037.0
29,kieta,-6.2167,155.6333,79.77,84.0,100.0,1.9,PG,1615496038.0
30,port alfred,-33.5906,26.891,64.99,88.0,88.0,1.01,ZA,1615496039.0
31,vanavara,60.34,102.2797,19.08,83.0,100.0,14.76,RU,1615496040.0
32,new norfolk,-42.7826,147.0587,55.0,79.0,10.0,1.95,AU,1615496040.0
33,jamestown,42.097,-79.2353,62.6,55.0,90.0,17.18,US,1615496032.0
34,orel,52.9658,36.0803,-3.08,89.0,0.0,8.37,RU,1615496042.0
35,brae,60.3964,-1.353,41.0,87.0,90.0,32.21,GB,1615496042.0
36,mar del plata,-38.0023,-57.5575,69.8,64.0,0.0,16.11,AR,1615496043.0
37,ushuaia,-54.8,-68.3,42.8,81.0,75.0,28.77,AR,1615495765.0
38,ahipara,-35.1667,173.1667,67.42,68.0,1.0,3.53,NZ,1615496044.0
39,luderitz,-26.6481,15.1594,68.54,81.0,0.0,11.34,NA,1615496045.0
40,sao filipe,14.8961,-24.4956,69.91,77.0,100.0,5.44,CV,1615496046.0
41,kavaratti,10.5669,72.642,82.51,69.0,97.0,4.76,IN,1615496047.0
42,catamarca,-28.4696,-65.7852,84.0,69.0,100.0,1.99,AR,1615495832.0
43,airai,-8.9266,125.4092,59.74,94.0,99.0,1.25,TL,1615496048.0
44,sorland,67.667,12.6934,35.6,55.0,75.0,18.41,NO,1615496049.0
45,saint george,37.1041,-113.5841,42.01,81.0,75.0,8.05,US,1615495991.0
46,igarka,67.4667,86.5833,-33.36,99.0,0.0,0.58,RU,1615496050.0
47,urumqi,43.801,87.6005,35.6,75.0,0.0,4.47,CN,1615496051.0
48,srednekolymsk,67.45,153.6833,-10.28,85.0,75.0,2.33,RU,1615496051.0
49,fougeres,48.35,-1.2,45.0,76.0,0.0,10.36,FR,1615496052.0
50,naze,28.3667,129.4833,64.69,83.0,95.0,18.81,JP,1615495922.0
51,ambilobe,-13.2,49.05,72.64,95.0,100.0,4.36,MG,1615496053.0
52,punta arenas,-53.15,-70.9167,55.4,62.0,40.0,24.16,CL,1615496055.0
53,marystown,47.1666,-55.1483,34.83,89.0,100.0,15.52,CA,1615496056.0
54,hobart,-42.8794,147.3294,57.2,94.0,20.0,6.91,AU,1615495843.0
55,oriximina,-1.7656,-55.8661,77.27,85.0,82.0,3.65,BR,1615496058.0
56,riyadh,24.6877,46.7219,78.8,20.0,0.0,6.91,SA,1615495950.0
57,port elizabeth,-33.918,25.5701,66.2,77.0,40.0,14.97,ZA,1615496059.0
58,itabirito,-20.2533,-43.8014,84.2,26.0,40.0,0.92,BR,1615495875.0
59,vila velha,-20.3297,-40.2925,78.8,83.0,75.0,5.75,BR,1615496060.0
60,east london,-33.0153,27.9116,70.68,71.0,98.0,12.01,ZA,1615496061.0
61,ryotsu,38.0833,138.4333,45.09,51.0,100.0,1.12,JP,1615496062.0
62,chifeng,42.2683,118.9636,33.22,97.0,100.0,3.4,CN,1615496063.0
63,mataura,-46.1927,168.8643,51.01,91.0,0.0,3.0,NZ,1615496063.0
64,faanui,-16.4833,-151.75,82.54,76.0,70.0,13.91,PF,1615496064.0
65,hauterive,46.0901,3.4459,50.0,62.0,20.0,20.71,FR,1615496065.0
66,constitucion,-35.3333,-72.4167,65.17,60.0,0.0,19.33,CL,1615496066.0
67,berlevag,70.8578,29.0864,21.2,79.0,0.0,42.57,NO,1615496067.0
68,barrow,71.2906,-156.7887,-9.4,64.0,1.0,9.22,US,1615496068.0
69,muscat,23.6139,58.5922,78.8,41.0,0.0,3.44,OM,1615495918.0
70,rawson,-43.3002,-65.1023,79.65,27.0,2.0,18.79,AR,1615496069.0
71,ilulissat,69.2167,-51.1,17.6,53.0,20.0,5.75,GL,1615496070.0
72,merzifon,40.8733,35.4631,35.6,60.0,75.0,16.11,TR,1615496070.0
73,walvis bay,-22.9575,14.5053,66.2,77.0,0.0,4.61,NA,1615496032.0
74,kavieng,-2.5744,150.7967,82.15,67.0,92.0,5.91,PG,1615496072.0
75,nayoro,44.3506,142.4578,29.53,93.0,83.0,3.8,JP,1615496072.0
76,lavrentiya,65.5833,-171.0,-10.08,73.0,0.0,6.71,RU,1615496073.0
77,mount isa,-20.7333,139.5,73.4,94.0,99.0,0.47,AU,1615496074.0
78,mount gambier,-37.8333,140.7667,51.8,100.0,90.0,3.44,AU,1615496075.0
79,severo-kurilsk,50.6789,156.125,25.84,89.0,90.0,25.46,RU,1615496075.0
80,port lincoln,-34.7333,135.8667,64.89,85.0,0.0,7.65,AU,1615496076.0
81,belawan,3.7755,98.6832,77.0,94.0,20.0,2.3,ID,1615496077.0
82,kununurra,-15.7667,128.7333,77.0,100.0,100.0,3.2,AU,1615495943.0
83,puerto ayora,-0.7393,-90.3518,84.2,70.0,40.0,6.91,EC,1615496078.0
84,samarai,-10.6167,150.6667,82.67,73.0,41.0,2.91,PG,1615496079.0
85,sibolga,1.7427,98.7792,75.47,87.0,97.0,3.6,ID,1615496080.0
86,sai buri,6.7013,101.6168,75.42,87.0,83.0,5.84,TH,1615496080.0
87,pietarsaari,63.65,22.6833,26.01,80.0,20.0,17.27,FI,1615496081.0
88,roebourne,-20.7833,117.1333,85.3,69.0,91.0,5.55,AU,1615496082.0
89,katherine,-14.4667,132.2667,75.2,100.0,37.0,4.03,AU,1615496083.0
90,ahuimanu,21.4447,-157.8378,77.0,83.0,75.0,4.61,US,1615496084.0
91,georgetown,5.4112,100.3354,78.8,83.0,20.0,3.44,MY,1615496085.0
92,meulaboh,4.1363,96.1285,76.3,87.0,28.0,4.21,ID,1615496086.0
93,nikolskoye,59.7035,30.7861,21.0,63.0,0.0,8.95,RU,1615496087.0
94,carnarvon,-24.8667,113.6333,77.0,88.0,40.0,10.36,AU,1615496087.0
95,ribeira grande,38.5167,-28.7,57.2,77.0,75.0,9.22,PT,1615496088.0
96,yumen,40.2833,97.2,39.38,30.0,78.0,4.29,CN,1615496089.0
97,aksu,41.1231,80.2644,47.39,34.0,100.0,4.72,CN,1615495876.0
98,cayenne,4.9333,-52.3333,79.0,88.0,75.0,6.91,GF,1615496090.0
99,oktyabrskiy,54.4815,53.471,-0.58,95.0,76.0,5.41,RU,1615496091.0
100,tuktoyaktuk,69.4541,-133.0374,-0.4,92.0,90.0,12.66,CA,1615495841.0
101,esperance,-33.8667,121.9,66.2,100.0,90.0,16.11,AU,1615496084.0
102,albany,42.6001,-73.9662,64.4,39.0,90.0,6.91,US,1615496055.0
103,galesong,-5.3166,119.3661,75.2,94.0,20.0,1.14,ID,1615496094.0
104,edd,13.9297,41.6925,85.84,39.0,0.0,19.24,ER,1615496095.0
105,pangnirtung,66.1451,-65.7125,-14.8,76.0,75.0,3.44,CA,1615496095.0
106,coahuayana,18.7333,-103.6833,84.2,39.0,1.0,6.87,MX,1615495947.0
107,raga,8.4596,25.678,80.67,33.0,31.0,1.72,SS,1615496097.0
108,senador jose porfirio,-2.5908,-51.9542,78.73,81.0,61.0,1.54,BR,1615496098.0
109,anahuac,27.2333,-100.15,86.0,42.0,75.0,9.22,MX,1615496099.0
110,xiashi,30.5363,120.6864,54.0,82.0,20.0,6.71,CN,1615496100.0
111,narasannapeta,18.4167,84.05,72.57,91.0,0.0,4.21,IN,1615495885.0
112,omsukchan,62.5333,155.8,-11.24,70.0,76.0,2.15,RU,1615496101.0
113,fare,-16.7,-151.0167,82.78,74.0,76.0,11.39,PF,1615496102.0
114,yellowknife,62.456,-114.3525,10.4,61.0,75.0,14.97,CA,1615495957.0
115,narsaq,60.9167,-46.05,23.0,58.0,75.0,2.3,GL,1615496104.0
116,ambon,-3.6954,128.1814,77.0,88.0,20.0,4.61,ID,1615496105.0
117,mirebalais,18.8333,-72.1053,82.4,69.0,37.0,13.8,HT,1615496106.0
118,geraldton,-28.7667,114.6,69.8,88.0,71.0,3.44,AU,1615496106.0
119,yulara,-25.2406,130.9889,75.2,69.0,73.0,3.44,AU,1615496108.0
120,saldanha,-33.0117,17.9442,62.6,67.0,97.0,2.3,ZA,1615496108.0
121,hurricane,37.1753,-113.2899,42.01,81.0,75.0,8.05,US,1615495879.0
122,uusikaupunki,60.8004,21.4084,30.2,64.0,90.0,18.41,FI,1615496110.0
123,burgos,42.3394,-3.7079,50.0,81.0,75.0,11.5,ES,1615496111.0
124,kruisfontein,-34.0033,24.7314,64.99,82.0,78.0,7.0,ZA,1615496054.0
125,pevek,69.7008,170.3133,-16.91,77.0,76.0,12.95,RU,1615496113.0
126,komsomolskiy,40.4272,71.7189,42.8,61.0,80.0,3.6,UZ,1615496113.0
127,bay roberts,47.5999,-53.2648,35.01,85.0,100.0,5.01,CA,1615496114.0
128,tasiilaq,65.6145,-37.6368,19.89,62.0,100.0,5.64,GL,1615496115.0
129,soyo,-6.1349,12.3689,81.03,79.0,99.0,8.1,AO,1615496116.0
130,dikson,73.5069,80.5464,-15.2,95.0,100.0,24.36,RU,1615496117.0
131,sitka,57.0531,-135.33,35.6,64.0,90.0,9.22,US,1615495578.0
132,chokurdakh,70.6333,147.9167,-20.0,84.0,61.0,6.67,RU,1615496118.0
133,caravelas,-17.7125,-39.2481,77.61,79.0,27.0,9.13,BR,1615496119.0
134,tiksi,71.6872,128.8694,-11.25,89.0,100.0,20.87,RU,1615496119.0
135,herat,34.5,62.0,51.58,39.0,38.0,7.67,AF,1615496120.0
136,laguna,38.421,-121.4238,57.0,54.0,40.0,10.36,US,1615496121.0
137,roshchino,60.2519,29.6085,19.99,89.0,100.0,8.01,RU,1615496122.0
138,bengkulu,-3.8004,102.2655,75.52,88.0,86.0,3.98,ID,1615496082.0
139,adrar,20.5022,-10.0711,66.52,19.0,22.0,12.66,MR,1615496123.0
140,ponta do sol,32.6667,-17.1,57.99,66.0,15.0,1.01,PT,1615496124.0
141,hithadhoo,-0.6,73.0833,82.29,64.0,0.0,4.85,MV,1615496124.0
142,victoria,22.2855,114.1577,69.01,85.0,47.0,1.99,HK,1615495935.0
143,rudbar,30.15,62.6,62.13,24.0,0.0,3.91,AF,1615496126.0
144,enumclaw,47.2043,-121.9915,55.0,66.0,0.0,4.0,US,1615496127.0
145,aswan,24.0934,32.907,78.12,21.0,0.0,9.06,EG,1615496045.0
146,cape town,-33.9258,18.4232,66.2,82.0,0.0,2.3,ZA,1615496043.0
147,pisco,-13.7,-76.2167,80.6,65.0,0.0,20.71,PE,1615496129.0
148,gimli,50.6336,-96.9907,15.8,53.0,71.0,12.66,CA,1615496130.0
149,lukh,57.0124,42.2584,0.55,96.0,0.0,6.4,RU,1615496130.0
150,sivas,39.7916,37.0019,26.6,80.0,75.0,24.16,TR,1615496081.0
151,cravo norte,6.3017,-70.2041,95.27,29.0,38.0,9.06,CO,1615496132.0
152,les cayes,18.2,-73.75,82.45,60.0,19.0,1.81,HT,1615496133.0
153,shimoda,34.6667,138.95,46.99,92.0,100.0,9.75,JP,1615496133.0
154,touros,-5.1989,-35.4608,84.2,65.0,40.0,12.66,BR,1615496101.0
155,mecca,21.4267,39.8261,80.33,39.0,0.0,2.8,SA,1615496042.0
156,lebu,-37.6167,-73.65,61.36,69.0,0.0,18.32,CL,1615496076.0
157,provideniya,64.3833,-173.3,-5.8,71.0,0.0,4.47,RU,1615496136.0
158,baruun-urt,46.6806,113.2792,18.36,53.0,0.0,3.27,MN,1615495956.0
159,norman wells,65.282,-126.8329,8.6,78.0,90.0,12.66,CA,1615496137.0
160,severnoye,56.3491,78.3619,7.66,90.0,100.0,14.63,RU,1615496138.0
161,kaiserslautern,49.45,7.75,45.0,100.0,90.0,12.66,DE,1615496138.0
162,saskylakh,71.9167,114.0833,-11.0,88.0,100.0,17.69,RU,1615496139.0
163,kaka,37.3482,59.6143,58.24,35.0,82.0,2.82,TM,1615496140.0
164,comarapa,-17.9,-64.4833,69.13,63.0,24.0,7.09,BO,1615496141.0
165,zaysan,47.4667,84.8667,24.71,72.0,51.0,3.67,KZ,1615496141.0
166,portland,45.5234,-122.6762,57.99,58.0,75.0,3.44,US,1615495781.0
167,shache,38.4167,77.2406,48.78,36.0,100.0,3.33,CN,1615496143.0
168,umm kaddadah,13.6017,26.6876,81.68,9.0,12.0,16.42,SD,1615496144.0
169,shubarshi,48.5872,57.1869,-9.98,94.0,5.0,7.47,KZ,1615496144.0
170,port hedland,-20.3167,118.5667,82.4,89.0,40.0,4.61,AU,1615496145.0
171,sioux lookout,50.1001,-91.917,32.0,55.0,20.0,13.8,CA,1615496142.0
172,sao joao da barra,-21.6403,-41.0511,84.2,70.0,0.0,13.8,BR,1615496147.0
173,san carlos de bariloche,-41.1456,-71.3082,60.8,48.0,0.0,24.16,AR,1615496077.0
174,antanifotsy,-19.65,47.3167,60.04,97.0,95.0,2.51,MG,1615496148.0
175,tartus,34.889,35.8866,60.8,77.0,75.0,18.41,SY,1615496149.0
176,samana,19.2056,-69.3369,80.6,78.0,75.0,9.22,DO,1615496150.0
177,marsa matruh,31.3525,27.2453,60.8,59.0,75.0,25.32,EG,1615496034.0
178,leeuwarden,53.2014,5.8086,45.0,81.0,90.0,14.97,NL,1615496060.0
179,beringovskiy,63.05,179.3167,5.11,81.0,40.0,5.06,RU,1615496152.0
180,mana,5.6592,-53.7767,77.38,88.0,100.0,11.86,GF,1615496152.0
181,kilindoni,-7.9139,39.6668,80.47,79.0,33.0,11.99,TZ,1615496153.0
182,alugan,12.2188,125.4808,75.99,93.0,100.0,18.21,PH,1615496154.0
183,vila franca do campo,37.7167,-25.4333,53.6,87.0,75.0,13.8,PT,1615496154.0
184,avarua,-21.2078,-159.775,82.4,74.0,75.0,5.75,CK,1615496155.0
185,scarborough,54.2797,-0.4044,39.99,83.0,37.0,4.0,GB,1615495922.0
186,bredasdorp,-34.5322,20.0403,68.0,69.0,86.0,5.99,ZA,1615496061.0
187,jizan,17.3333,42.6667,80.6,78.0,0.0,3.44,SA,1615496158.0
188,nanortalik,60.1432,-45.2371,19.74,83.0,76.0,11.3,GL,1615496158.0
189,carutapera,-1.195,-46.02,79.5,81.0,82.0,4.76,BR,1615495997.0
190,taklisah,36.7833,10.6333,55.4,62.0,20.0,3.44,TN,1615496160.0
191,salamiyah,35.0113,37.0532,53.44,84.0,26.0,23.38,SY,1615496160.0
192,anajatuba,-3.2644,-44.6197,78.66,92.0,98.0,3.33,BR,1615496161.0
193,turinsk,58.0458,63.696,-4.5,96.0,100.0,8.05,RU,1615496162.0
194,leningradskiy,69.3833,178.4167,-10.41,63.0,1.0,3.0,RU,1615495838.0
195,bakchar,57.0186,82.0711,16.32,80.0,97.0,14.03,RU,1615496163.0
196,pokhara,28.2333,83.9833,64.31,24.0,0.0,6.22,NP,1615496164.0
197,pemangkat,1.1667,108.9667,76.66,86.0,95.0,4.88,ID,1615496165.0
198,goderich,43.7501,-81.7165,48.2,76.0,67.0,16.11,CA,1615495847.0
199,marquette,46.5333,-87.6335,39.0,65.0,100.0,11.01,US,1615496092.0
200,olafsvik,64.8945,-23.7142,34.72,79.0,100.0,45.16,IS,1615495888.0
201,shitkino,56.3703,98.3543,17.96,91.0,100.0,6.11,RU,1615496168.0
202,lufilufi,-13.8745,-171.5986,78.01,94.0,100.0,10.89,WS,1615496168.0
203,dunedin,-45.8742,170.5036,57.99,70.0,28.0,4.0,NZ,1615496058.0
204,nhulunbuy,-12.2333,136.7667,77.0,94.0,75.0,9.89,AU,1615496170.0
205,cidreira,-30.1811,-50.2056,74.88,67.0,0.0,8.63,BR,1615496170.0
206,broome,42.2506,-75.833,60.8,48.0,90.0,13.8,US,1615496171.0
207,arlit,18.7369,7.3853,83.25,10.0,0.0,5.77,NE,1615496172.0
208,vila do maio,15.1333,-23.2167,69.8,73.0,100.0,17.27,CV,1615496173.0
209,mahebourg,-20.4081,57.7,80.6,78.0,40.0,8.05,MU,1615496086.0
210,aguada de pasajeros,22.385,-80.8508,86.0,37.0,40.0,13.8,CU,1615496175.0
211,laredo,27.5064,-99.5075,87.8,42.0,1.0,16.11,US,1615495891.0
212,batagay,67.6333,134.6333,-17.63,79.0,2.0,3.96,RU,1615496176.0
213,hofn,64.2539,-15.2082,38.59,69.0,94.0,14.12,IS,1615496177.0
214,prainha,-1.8,-53.48,80.51,79.0,60.0,0.29,BR,1615496178.0
215,chumphon,10.3333,98.8333,68.94,98.0,9.0,1.16,TH,1615496179.0
216,takoradi,4.8845,-1.7554,81.36,82.0,100.0,9.89,GH,1615496041.0
217,careiro da varzea,-3.2003,-59.8119,80.6,83.0,40.0,3.44,BR,1615496180.0
218,tooele,40.5308,-112.2983,39.99,100.0,90.0,7.11,US,1615495941.0
219,am timan,11.0297,20.2827,83.3,12.0,74.0,2.35,TD,1615496061.0
220,alice springs,-23.7,133.8833,75.2,83.0,98.0,9.01,AU,1615496182.0
221,hirara,24.8,125.2833,71.28,82.0,2.0,14.16,JP,1615496182.0
222,zyryanovsk,49.7386,84.2719,24.46,96.0,98.0,1.34,KZ,1615496183.0
223,yinchuan,38.4681,106.2731,49.23,29.0,0.0,4.07,CN,1615496184.0
224,payo,-3.7508,103.6372,71.73,97.0,100.0,1.5,ID,1615496185.0
225,igrim,63.1906,64.4162,-17.37,96.0,60.0,6.31,RU,1615496186.0
226,agar,23.7,76.0167,71.67,33.0,59.0,4.09,IN,1615496187.0
227,balaipungut,1.05,101.2833,72.66,95.0,100.0,0.54,ID,1615496188.0
228,shenzhen,22.5455,114.0683,70.0,98.0,37.0,3.4,CN,1615496051.0
229,villamartin,36.8598,-5.6449,57.2,82.0,0.0,6.91,ES,1615496189.0
230,kaitangata,-46.2817,169.8464,50.95,77.0,1.0,5.61,NZ,1615495852.0
231,kharan,28.5833,65.4167,64.76,22.0,0.0,7.54,PK,1615496190.0
232,torbay,47.6666,-52.7314,36.0,75.0,90.0,25.32,CA,1615496128.0
233,altay,47.8667,88.1167,30.06,96.0,100.0,2.55,CN,1615496192.0
234,dicabisagan,17.0818,122.4157,74.39,85.0,98.0,5.61,PH,1615496193.0
235,bac lieu,9.285,105.7244,77.88,79.0,1.0,13.71,VN,1615496193.0
236,brainerd,46.358,-94.2008,39.0,60.0,1.0,17.27,US,1615496194.0
237,tombouctou,20.0,-3.0,70.05,23.0,0.0,11.52,ML,1615496195.0
238,roma,43.2128,-75.4557,66.2,37.0,20.0,9.22,US,1615496196.0
239,chowchilla,37.123,-120.2602,52.0,71.0,90.0,6.91,US,1615496196.0
240,bolama,11.5833,-15.4667,82.4,51.0,0.0,3.44,GW,1615496197.0
241,correia pinto,-27.5847,-50.3611,70.84,54.0,0.0,3.53,BR,1615496198.0
242,volchikha,52.0333,80.3833,21.6,94.0,100.0,10.54,RU,1615496199.0
243,lloydminster,53.2835,-110.0016,23.0,63.0,20.0,6.91,CA,1615496199.0
244,baglung,28.2719,83.5898,58.23,34.0,0.0,6.38,NP,1615496200.0
245,arman,59.7,150.1667,0.46,75.0,100.0,3.42,RU,1615496201.0
246,kautokeino,69.0125,23.0412,10.09,90.0,100.0,25.68,NO,1615496202.0
247,ruidoso,33.3317,-105.673,59.0,7.0,1.0,20.71,US,1615496202.0
248,hualmay,-11.0964,-77.6139,77.38,69.0,9.0,10.29,PE,1615496204.0
249,novyy urengoy,66.0833,76.6333,-29.76,94.0,0.0,9.04,RU,1615496204.0
250,fortuna,40.5982,-124.1573,55.99,76.0,1.0,10.36,US,1615496205.0
251,olsztyn,53.7799,20.4942,32.0,100.0,90.0,16.11,PL,1615496206.0
252,tilichiki,60.4667,166.1,17.98,95.0,100.0,10.49,RU,1615496207.0
253,bathsheba,13.2167,-59.5167,82.4,57.0,20.0,20.71,BB,1615496207.0
254,lyngseidet,69.5763,20.2189,28.4,63.0,0.0,19.57,NO,1615496209.0
255,sinop,41.7711,34.8709,27.7,96.0,100.0,16.91,TR,1615496081.0
256,talnakh,69.4865,88.3972,-29.29,95.0,93.0,7.92,RU,1615496210.0
257,cabo san lucas,22.8909,-109.9124,75.99,46.0,75.0,11.5,MX,1615496098.0
258,benjamin constant,-4.3831,-70.0311,82.4,74.0,40.0,6.91,BR,1615495995.0
259,hilo,19.7297,-155.09,78.8,73.0,90.0,4.61,US,1615496212.0
260,lagoa,39.05,-27.9833,56.01,63.0,89.0,11.34,PT,1615496212.0
261,poum,-20.2333,164.0167,78.44,74.0,100.0,13.35,NC,1615496213.0
262,gangakher,18.95,76.75,78.91,18.0,0.0,9.22,IN,1615496214.0
263,qostanay,53.1667,63.5833,-4.0,77.0,75.0,8.95,KZ,1615496215.0
264,jiuquan,39.7432,98.5174,40.05,32.0,100.0,1.72,CN,1615496216.0
265,auki,-8.7676,160.7034,79.29,85.0,100.0,4.7,SB,1615496217.0
266,joensuu,62.6012,29.7632,12.99,85.0,20.0,11.5,FI,1615496217.0
267,broken hill,-31.95,141.4333,64.4,63.0,1.0,5.14,AU,1615496068.0
268,chumikan,54.7183,135.315,9.52,87.0,4.0,16.08,RU,1615496219.0
269,assiniboia,49.6334,-105.9845,24.8,39.0,33.0,9.22,CA,1615496221.0
270,coquimbo,-29.9533,-71.3436,64.4,82.0,75.0,12.66,CL,1615495996.0
271,itupiranga,-5.1347,-49.3267,82.4,83.0,20.0,3.44,BR,1615496222.0
272,pahrump,36.2083,-115.9839,51.01,44.0,100.0,3.0,US,1615496168.0
273,saint anthony,45.0205,-93.218,46.99,42.0,1.0,17.27,US,1615496224.0
274,fort nelson,58.8053,-122.7002,19.4,49.0,75.0,5.75,CA,1615496224.0
275,azul,-36.777,-59.8585,80.01,38.0,92.0,3.0,AR,1615496225.0
276,pacific grove,36.6177,-121.9166,55.4,54.0,75.0,8.05,US,1615496160.0
277,hasaki,35.7333,140.8333,48.2,93.0,75.0,3.44,JP,1615495844.0
278,aquin,18.2833,-73.4,81.43,62.0,2.0,3.65,HT,1615496227.0
279,ploemeur,47.7333,-3.4333,48.2,71.0,75.0,14.97,FR,1615496228.0
280,stephenville,32.2207,-98.2023,77.0,57.0,90.0,3.44,US,1615496123.0
281,baraboo,43.4711,-89.7443,53.01,49.0,1.0,13.8,US,1615496230.0
282,champerico,14.3,-91.9167,93.2,55.0,75.0,6.91,GT,1615496230.0
283,pontes e lacerda,-15.2261,-59.3353,81.77,74.0,100.0,1.95,BR,1615496231.0
284,fujin,47.26,132.0322,18.57,84.0,0.0,4.72,CN,1615496232.0
285,itarema,-2.9248,-39.9167,80.49,79.0,59.0,13.8,BR,1615495858.0
286,kalabo,-14.97,22.6814,69.28,70.0,69.0,3.85,ZM,1615496234.0
287,nha trang,12.25,109.1833,77.0,73.0,20.0,5.75,VN,1615496235.0
288,prieska,-29.6641,22.7474,70.07,29.0,0.0,2.91,ZA,1615496235.0
289,safranbolu,41.2508,32.6942,31.33,92.0,88.0,5.06,TR,1615496236.0
290,jogighopa,26.2333,90.5833,68.92,52.0,0.0,8.52,IN,1615496237.0
291,vestmannaeyjar,63.4427,-20.2734,37.92,60.0,96.0,4.85,IS,1615496238.0
292,bandar,2.05,99.75,72.03,93.0,84.0,2.21,ID,1615496238.0
293,bonavista,48.6499,-53.1147,35.01,86.0,100.0,9.22,CA,1615496239.0
294,albemarle,35.3501,-80.2001,73.4,35.0,1.0,14.97,US,1615496240.0
295,gandajika,-6.75,23.95,70.39,81.0,60.0,3.58,CD,1615496240.0
296,saint-georges,12.0564,-61.7485,84.2,65.0,40.0,17.27,GD,1615496242.0
297,cockburn town,21.4612,-71.1419,74.98,79.0,27.0,28.61,TC,1615496243.0
298,ermelo,-26.5333,29.9833,60.1,93.0,28.0,11.9,ZA,1615496243.0
299,grand gaube,-20.0064,57.6608,79.0,75.0,68.0,4.0,MU,1615496244.0
300,puerto escondido,15.85,-97.0667,84.2,70.0,1.0,5.75,MX,1615496245.0
301,praia da vitoria,38.7333,-27.0667,57.2,72.0,75.0,9.82,PT,1615496070.0
302,bud,39.447,-86.1758,60.01,92.0,100.0,8.05,US,1615496246.0
303,chuy,-33.6971,-53.4616,73.04,67.0,12.0,4.34,UY,1615496247.0
304,atherton,53.5237,-2.4935,42.01,74.0,100.0,4.0,GB,1615496248.0
305,namanyere,-7.5167,31.05,61.23,92.0,53.0,3.83,TZ,1615496248.0
306,flinders,-34.5833,150.8552,70.0,94.0,84.0,1.01,AU,1615495840.0
307,quatre cocos,-20.2078,57.7625,80.6,78.0,40.0,8.05,MU,1615496250.0
308,kabare,-2.4683,28.8242,61.74,92.0,85.0,1.61,CD,1615496189.0
309,upernavik,72.7868,-56.1549,-0.87,84.0,3.0,4.63,GL,1615496251.0
310,ola,59.5833,151.2833,-2.87,80.0,100.0,3.78,RU,1615496252.0
311,sochaczew,52.2294,20.2384,36.0,100.0,75.0,11.5,PL,1615496252.0
312,kayerkan,69.3497,87.7602,-27.36,92.0,66.0,6.78,RU,1615496253.0
313,vardo,70.3705,31.1107,15.8,86.0,0.0,26.46,NO,1615496254.0
314,iqaluit,63.7506,-68.5145,-13.0,70.0,75.0,1.3,CA,1615496162.0
315,saurimo,-9.6608,20.3916,67.19,89.0,64.0,3.67,AO,1615496255.0
316,pangody,65.85,74.4859,-29.22,95.0,0.0,10.45,RU,1615496256.0
317,kiunga,-6.1219,141.2906,71.89,99.0,100.0,1.3,PG,1615496257.0
318,seydi,39.4816,62.9137,52.47,35.0,94.0,14.92,TM,1615496258.0
319,fairbanks,64.8378,-147.7164,-2.99,65.0,20.0,19.57,US,1615496147.0
320,muros,42.7762,-9.0603,53.01,85.0,99.0,4.59,ES,1615496259.0
321,araouane,18.9048,-3.5265,70.32,21.0,0.0,11.81,ML,1615496260.0
322,gat,31.61,34.7642,63.0,100.0,100.0,1.01,IL,1615496260.0
323,kupang,-10.1667,123.5833,77.2,85.0,99.0,3.87,ID,1615496043.0
324,axim,4.8699,-2.2405,81.68,82.0,100.0,9.1,GH,1615496262.0
325,dingle,10.9995,122.6711,73.63,93.0,100.0,11.18,PH,1615496263.0
326,forssa,60.8146,23.6215,27.0,73.0,100.0,5.01,FI,1615496264.0
327,havoysund,70.9963,24.6622,23.0,68.0,0.0,35.68,NO,1615496265.0
328,guanambi,-14.2233,-42.7814,78.96,69.0,97.0,2.57,BR,1615496265.0
329,labuhan,-6.8844,112.2051,76.75,87.0,100.0,7.2,ID,1615496266.0
330,serik,36.9169,31.0989,53.6,40.0,20.0,23.02,TR,1615496267.0
331,sesheke,-17.4759,24.2968,67.06,62.0,3.0,2.89,ZM,1615496115.0
332,mogadouro,41.3403,-6.7119,51.01,86.0,100.0,1.99,PT,1615496269.0
333,tomatlan,19.9333,-105.25,85.37,47.0,0.0,10.33,MX,1615496269.0
334,monrovia,6.3005,-10.7969,75.2,100.0,40.0,9.06,LR,1615496270.0
335,rio grande,-32.035,-52.0986,80.6,61.0,40.0,11.5,BR,1615496172.0
336,sistranda,63.7256,8.834,39.2,60.0,40.0,24.16,NO,1615496214.0
337,kahului,20.8947,-156.47,75.2,83.0,40.0,3.44,US,1615496244.0
338,solwezi,-12.1688,26.3894,63.63,97.0,100.0,1.28,ZM,1615496274.0
339,inhambane,-23.865,35.3833,75.85,86.0,0.0,7.61,MZ,1615496275.0
340,zhigansk,66.7697,123.3711,-13.74,99.0,91.0,5.91,RU,1615496276.0
341,lucapa,-8.4192,20.7447,67.59,92.0,25.0,1.23,AO,1615496277.0
342,alofi,-19.0595,-169.9187,80.6,69.0,40.0,6.91,NU,1615496277.0
343,road town,18.4167,-64.6167,80.6,65.0,40.0,11.5,VG,1615496278.0
344,kenai,60.5544,-151.2583,17.6,73.0,20.0,5.75,US,1615496279.0
345,asau,46.4333,26.4,27.0,64.0,93.0,5.03,RO,1615496279.0
346,general roca,-39.0333,-67.5833,78.8,27.0,0.0,13.8,AR,1615496280.0
347,kangundo,-1.2979,37.3471,69.8,56.0,20.0,8.05,KE,1615496281.0
348,jojoima,7.8792,-10.7878,76.75,85.0,96.0,3.98,SL,1615496282.0
349,boddam,57.4667,-1.7833,39.2,65.0,0.0,18.41,GB,1615496282.0
350,catio,11.2833,-15.25,74.66,65.0,69.0,7.34,GW,1615496283.0
351,hazorasp,41.3194,61.0742,37.4,56.0,100.0,23.02,UZ,1615496284.0
352,lambarene,-0.7001,10.2406,77.18,93.0,100.0,3.27,GA,1615496285.0
353,phalombe,-15.8064,35.6507,68.32,94.0,78.0,1.63,MW,1615496286.0
354,boyolangu,-8.1181,111.8935,73.13,91.0,100.0,2.71,ID,1615496172.0
355,bambanglipuro,-7.95,110.2833,75.83,88.0,52.0,4.05,ID,1615496287.0
356,bulqize,41.4917,20.2219,41.0,75.0,0.0,2.3,AL,1615496288.0
357,dharchula,29.85,80.5333,55.74,30.0,0.0,8.41,IN,1615496289.0
358,envira,-7.3,-70.2167,80.06,89.0,53.0,3.89,BR,1615496290.0
359,garowe,8.4054,48.4845,66.7,88.0,0.0,10.18,SO,1615496291.0
360,fallon,39.4735,-118.7774,41.0,52.0,90.0,5.75,US,1615496292.0
361,ranot,7.7777,100.3213,79.99,77.0,96.0,10.09,TH,1615496292.0
362,casimcea,44.7333,28.3667,28.4,80.0,0.0,2.3,RO,1615496293.0
363,los llanos de aridane,28.6585,-17.9182,64.4,68.0,20.0,10.36,ES,1615496294.0
364,taoudenni,22.6783,-3.9836,67.75,36.0,0.0,11.92,ML,1615496295.0
365,tutoia,-2.7619,-42.2744,80.35,82.0,100.0,8.75,BR,1615496295.0
366,anadyr,64.75,177.4833,-20.2,76.0,0.0,4.47,RU,1615496296.0
367,kamenka,51.3223,42.7678,-4.13,92.0,0.0,4.74,RU,1615496297.0
368,muswellbrook,-32.2667,150.9,66.11,94.0,74.0,1.74,AU,1615496298.0
369,kangaatsiaq,68.3065,-53.4641,15.94,88.0,94.0,3.74,GL,1615496298.0
370,sur,22.5667,59.5289,77.23,38.0,0.0,5.61,OM,1615496299.0
371,clyde river,70.4692,-68.5914,-4.0,71.0,20.0,11.5,CA,1615496300.0
372,maryborough,-25.5333,152.7,71.01,93.0,17.0,3.0,AU,1615496301.0
373,surt,31.2089,16.5887,60.21,68.0,89.0,11.07,LY,1615496302.0
374,salalah,17.0151,54.0924,75.2,35.0,0.0,3.44,OM,1615496076.0
375,petropavlovsk-kamchatskiy,53.0452,158.6483,26.6,68.0,20.0,6.71,RU,1615496304.0
376,mabaruma,8.2,-59.7833,79.81,76.0,29.0,6.78,GY,1615496305.0
377,strezhevoy,60.7333,77.5889,-2.2,84.0,100.0,8.95,RU,1615496305.0
378,ancud,-41.8697,-73.8203,60.8,77.0,75.0,11.5,CL,1615495848.0
379,george town,5.4112,100.3354,78.8,83.0,20.0,3.44,MY,1615496085.0
380,tual,-5.6667,132.75,83.43,73.0,77.0,9.98,ID,1615496307.0
381,alta floresta,-9.8756,-56.0861,80.6,74.0,75.0,10.36,BR,1615496308.0
382,shushtar,32.0455,48.8567,72.14,32.0,100.0,11.34,IR,1615496309.0
383,souillac,-20.5167,57.5167,80.6,78.0,40.0,8.05,MU,1615496309.0
384,kalamare,-22.9337,26.5703,73.35,41.0,11.0,2.44,BW,1615496311.0
385,bukachacha,52.9833,116.9167,8.4,98.0,71.0,2.39,RU,1615496311.0
386,morondava,-20.2833,44.2833,79.23,74.0,0.0,11.83,MG,1615496312.0
387,saint-augustin,51.226,-58.6502,34.57,99.0,100.0,4.56,CA,1615495575.0
388,nome,64.5011,-165.4064,-16.01,83.0,1.0,1.61,US,1615496313.0
389,imeni zhelyabova,58.9544,36.5956,5.11,91.0,0.0,6.71,RU,1615496314.0
390,douglas,41.3,-96.167,55.99,30.0,1.0,4.61,US,1615496131.0
391,shirokovskiy,58.8424,57.7832,-5.4,99.0,100.0,2.84,RU,1615496316.0
392,longyearbyen,78.2186,15.6401,6.8,61.0,40.0,20.71,SJ,1615496317.0
393,tessalit,20.1986,1.0114,68.88,14.0,0.0,10.0,ML,1615496318.0
394,mlonggo,-6.5333,110.7,78.3,82.0,93.0,3.69,ID,1615496318.0
395,bitkine,11.9801,18.2138,80.22,10.0,100.0,4.61,TD,1615496319.0
396,havre-saint-pierre,50.2334,-63.5986,37.4,81.0,90.0,3.44,CA,1615496078.0
397,kutum,14.2,24.6667,72.79,9.0,11.0,11.48,SD,1615496320.0
398,saint-joseph,-21.3667,55.6167,75.2,57.0,0.0,6.91,RE,1615496322.0
399,faya,18.3851,42.4509,62.6,82.0,0.0,4.61,SA,1615496133.0
400,santa fe,-31.6333,-60.7,93.99,33.0,93.0,4.99,AR,1615496323.0
401,malinovoye ozero,51.6753,79.7825,22.48,93.0,100.0,10.78,RU,1615496324.0
402,bako,5.7833,36.5667,72.64,42.0,54.0,5.53,ET,1615496324.0
403,ostrovnoy,68.0531,39.5131,11.5,84.0,49.0,28.21,RU,1615496325.0
404,taraz,42.9,71.3667,33.8,86.0,75.0,6.71,KZ,1615496326.0
405,kudahuvadhoo,2.6708,72.8944,82.04,72.0,18.0,7.31,MV,1615496327.0
406,aquiraz,-3.9014,-38.3911,84.99,74.0,20.0,10.36,BR,1615496328.0
407,mareeba,-17.0,145.4333,77.0,83.0,51.0,6.91,AU,1615496329.0
408,khrebtovaya,56.7032,104.2494,22.95,89.0,100.0,7.56,RU,1615496330.0
409,elk city,35.412,-99.4043,57.2,51.0,40.0,10.36,US,1615496331.0
410,goundi,9.3627,17.366,86.04,16.0,94.0,2.53,TD,1615496332.0
411,teguise,29.0605,-13.564,64.4,77.0,0.0,10.36,ES,1615496332.0
412,abu zabad,12.35,29.25,82.74,16.0,80.0,11.68,SD,1615496333.0
413,uglekamensk,43.2172,133.2303,26.06,74.0,100.0,3.96,RU,1615496334.0
414,marrakesh,31.6315,-8.0083,60.8,44.0,0.0,6.91,MA,1615496335.0
415,college,64.8569,-147.8028,-4.0,59.0,75.0,12.66,US,1615496335.0
416,burns lake,54.2331,-125.7533,30.2,40.0,100.0,6.91,CA,1615496336.0
417,tazovskiy,67.4667,78.7,-30.12,95.0,0.0,10.74,RU,1615496337.0
418,bikaner,28.0167,73.3,74.86,23.0,55.0,9.98,IN,1615496337.0
419,mehamn,71.0357,27.8492,23.0,80.0,0.0,10.36,NO,1615496339.0
420,orillia,44.6087,-79.4207,62.01,55.0,100.0,19.57,CA,1615496128.0
421,vigrestad,58.5667,5.7,39.99,95.0,96.0,1.99,NO,1615496340.0
422,eureka,40.8021,-124.1637,55.99,63.0,0.0,7.0,US,1615496093.0
423,bethel,41.3712,-73.414,69.8,30.0,1.0,9.22,US,1615496341.0
424,torfyanoy,58.4916,49.1979,5.74,92.0,5.0,7.9,RU,1615496342.0
425,maniitsoq,65.4167,-52.9,18.7,79.0,99.0,1.5,GL,1615496343.0
426,avera,33.194,-82.5271,75.2,35.0,1.0,4.61,US,1615496344.0
427,palasa,18.7667,84.4167,71.6,82.0,0.0,5.99,IN,1615496345.0
428,comodoro rivadavia,-45.8667,-67.5,73.4,28.0,0.0,26.46,AR,1615496346.0
429,bama,11.5221,13.6856,84.81,14.0,68.0,8.28,NG,1615496346.0
430,roald,62.5833,6.1333,41.0,87.0,75.0,24.16,NO,1615496347.0
431,srivardhan,18.0333,73.0167,73.17,64.0,0.0,4.29,IN,1615496348.0
432,dondo,-19.6094,34.7431,80.6,89.0,40.0,9.22,MZ,1615496349.0
433,katsuura,35.1333,140.3,50.0,76.0,75.0,6.91,JP,1615496349.0
434,kerman,30.2832,57.0788,48.2,25.0,0.0,6.2,IR,1615496114.0
435,aksarka,66.5606,67.7975,-8.07,94.0,100.0,19.95,RU,1615496351.0
436,batemans bay,-35.7167,150.1833,66.99,95.0,96.0,3.0,AU,1615496352.0
437,taltal,-25.4,-70.4833,71.73,76.0,63.0,6.64,CL,1615496352.0
438,bukid,5.5717,125.4056,78.44,81.0,23.0,4.79,PH,1615496353.0
439,christchurch,-43.5333,172.6333,62.01,72.0,0.0,3.44,NZ,1615496244.0
440,orasac,44.6289,16.0711,40.21,76.0,100.0,9.33,BA,1615496354.0
441,kayankulam,9.1833,76.5,76.91,85.0,77.0,4.36,IN,1615496355.0
442,maba,24.6841,113.5984,61.14,90.0,78.0,2.17,CN,1615496356.0
443,torrington,41.8007,-73.1212,66.0,41.0,1.0,1.01,US,1615496357.0
444,nushki,29.5542,66.0215,59.72,26.0,33.0,3.0,PK,1615496357.0
445,kalmunai,7.4167,81.8167,77.99,82.0,18.0,4.85,LK,1615496168.0
446,killeen,31.1171,-97.7278,78.8,50.0,40.0,12.66,US,1615496359.0
447,huilong,31.8111,121.655,52.0,88.0,99.0,5.99,CN,1615496359.0
448,kormilovka,55.0026,74.1028,5.0,78.0,75.0,15.66,RU,1615496361.0
449,sisimiut,66.9395,-53.6735,18.48,89.0,99.0,6.58,GL,1615496361.0
450,kisesa,-3.0833,34.15,63.03,59.0,24.0,5.23,TZ,1615496362.0
451,lubao,14.9167,120.55,77.0,73.0,75.0,6.91,PH,1615496363.0
452,dong hoi,17.4833,106.6,72.03,95.0,34.0,3.8,VN,1615496193.0
453,buraydah,26.326,43.975,73.4,43.0,0.0,3.44,SA,1615496365.0
454,whitehorse,60.7161,-135.0538,28.99,29.0,40.0,18.41,CA,1615496088.0
455,lashio,22.9333,97.75,57.76,52.0,7.0,1.54,MM,1615496366.0
456,gonzalez,30.5816,-87.2914,75.0,68.0,1.0,13.8,US,1615496367.0
457,shatrovo,56.5167,64.6333,-7.53,96.0,99.0,7.7,RU,1615496368.0
458,bafra,41.5678,35.9069,41.0,75.0,100.0,20.94,TR,1615496369.0
459,san quintin,30.4833,-115.95,59.02,57.0,53.0,13.69,MX,1615496370.0
460,proletariy,58.4342,31.7046,18.48,87.0,94.0,12.01,RU,1615496370.0
461,san policarpo,12.1791,125.5072,76.28,93.0,100.0,19.62,PH,1615496371.0
462,oistins,13.0667,-59.5333,82.4,57.0,20.0,20.71,BB,1615496372.0
463,tandalti,13.0167,31.8667,86.7,11.0,1.0,13.29,SD,1615496373.0
464,badiraguato,25.3667,-107.5167,89.01,30.0,75.0,6.91,MX,1615496373.0
465,benguela,-12.5763,13.4055,80.58,81.0,88.0,2.73,AO,1615496374.0
466,nuuk,64.1835,-51.7216,23.0,86.0,40.0,8.05,GL,1615496375.0
467,saint-pierre,-21.3393,55.4781,75.2,57.0,0.0,6.91,RE,1615496376.0
468,gaoua,10.2992,-3.2508,89.31,33.0,91.0,3.38,BF,1615496376.0
469,tiznit,29.5833,-9.5,58.68,48.0,0.0,1.03,MA,1615496377.0
470,kamaishi,39.2667,141.8833,40.57,50.0,100.0,4.63,JP,1615496378.0
471,chapleau,47.8405,-83.4034,28.4,86.0,90.0,20.71,CA,1615496379.0
472,wajir,1.7471,40.0573,79.11,59.0,1.0,17.02,KE,1615496379.0
473,ishigaki,24.3448,124.1572,71.74,83.0,34.0,11.81,JP,1615496380.0
474,dehui,44.5333,125.7,26.6,86.0,99.0,2.24,CN,1615496381.0
475,soltsy,58.1239,30.3238,21.42,85.0,100.0,12.97,RU,1615496382.0
476,sakakah,29.9697,40.2064,75.2,15.0,54.0,11.5,SA,1615496382.0
477,zhangye,38.9342,100.4517,43.9,26.0,100.0,1.5,CN,1615496383.0
478,hit,33.6416,42.8251,70.79,25.0,100.0,15.32,IQ,1615496384.0
479,mahonda,-6.45,39.4667,80.62,79.0,27.0,11.54,TZ,1615496385.0
480,odweyne,9.4092,45.064,69.75,52.0,0.0,7.05,SO,1615496385.0
481,aklavik,68.2191,-135.0107,-0.4,78.0,90.0,27.63,CA,1615496386.0
482,lompoc,34.6391,-120.4579,51.8,66.0,90.0,4.61,US,1615496127.0
483,virginia beach,36.8529,-75.978,77.0,22.0,20.0,18.41,US,1615496292.0
484,pochutla,15.7432,-96.4661,89.6,45.0,1.0,11.5,MX,1615496389.0
485,taloqan,36.7361,69.5345,47.37,75.0,100.0,1.83,AF,1615496389.0
486,kizhinga,51.8462,109.9097,18.61,87.0,0.0,1.92,RU,1615496390.0
487,warrnambool,-38.3833,142.4833,55.0,95.0,0.0,6.8,AU,1615496391.0
488,chapais,49.7834,-74.8492,44.6,87.0,20.0,13.8,CA,1615496392.0
489,sola,-13.8833,167.55,80.1,80.0,100.0,14.03,VU,1615496392.0
490,puerto colombia,10.9878,-74.9547,87.8,55.0,20.0,12.66,CO,1615496393.0
491,natal,-5.795,-35.2094,84.2,70.0,40.0,16.11,BR,1615496394.0
492,beipiao,41.7919,120.7792,37.81,84.0,97.0,9.06,CN,1615496395.0
493,luanda,-8.8368,13.2343,80.6,83.0,75.0,6.91,AO,1615496188.0
494,nizwa,22.9333,57.5333,68.29,27.0,36.0,2.64,OM,1615496294.0
495,tsabong,-26.0217,22.401,79.74,13.0,0.0,8.21,BW,1615496397.0
496,birao,10.2849,22.7882,86.04,14.0,8.0,6.87,CF,1615496398.0
497,viesca,25.35,-102.8,90.0,9.0,75.0,5.75,MX,1615496398.0
498,tabuk,17.4189,121.4443,68.23,93.0,99.0,1.12,PH,1615496399.0
499,ushtobe,45.2514,77.9838,35.98,64.0,37.0,4.45,KZ,1615496400.0
500,vilhena,-12.7406,-60.1458,80.6,69.0,75.0,8.05,BR,1615496401.0
501,kon tum,14.35,108.0,60.03,95.0,1.0,2.55,VN,1615496403.0
502,khandyga,62.6667,135.6,-5.66,98.0,99.0,2.86,RU,1615495857.0
503,george,-33.963,22.4617,62.6,88.0,75.0,11.5,ZA,1615496405.0
504,mamakan,57.8161,114.0028,23.47,86.0,100.0,4.88,RU,1615496406.0
505,sredneuralsk,56.9892,60.4666,-14.8,76.0,0.0,2.24,RU,1615496407.0
506,winnemucca,40.973,-117.7357,39.2,60.0,90.0,11.5,US,1615496408.0
507,harboore,56.6175,8.1807,41.0,3.0,100.0,4.0,DK,1615496409.0
508,carauari,-4.8828,-66.8958,82.71,68.0,40.0,3.69,BR,1615496410.0
509,san jose,37.3394,-121.895,55.0,58.0,75.0,4.61,US,1615496308.0
510,yar-sale,66.8333,70.8333,-15.9,92.0,85.0,19.17,RU,1615496411.0
511,kodiak,57.79,-152.4072,21.2,38.0,1.0,29.93,US,1615496412.0
512,turbo,8.0937,-76.7269,80.89,80.0,18.0,10.87,CO,1615496413.0
513,hokitika,-42.7167,170.9667,61.05,75.0,26.0,2.51,NZ,1615496414.0
514,mocuba,-16.8392,36.9856,74.3,98.0,100.0,4.0,MZ,1615496415.0
515,antofagasta,-23.65,-70.4,73.4,68.0,20.0,14.97,CL,1615496416.0
516,visby,57.6409,18.296,34.0,93.0,90.0,20.71,SE,1615496416.0
517,pajan,-1.5667,-80.4167,82.4,76.0,85.0,5.03,EC,1615496417.0
518,kirakira,-10.4544,161.9205,80.82,80.0,87.0,1.66,SB,1615496119.0
519,guerrero negro,27.9769,-114.0611,63.63,46.0,100.0,13.69,MX,1615496418.0
520,bima,-8.4667,118.7167,75.45,90.0,100.0,2.46,ID,1615496419.0
521,ponta delgada,37.7333,-25.6667,53.6,87.0,75.0,13.8,PT,1615496420.0
522,sabha,27.0377,14.4283,64.26,55.0,100.0,23.2,LY,1615496421.0
523,jacareacanga,-6.2222,-57.7528,76.44,90.0,100.0,2.21,BR,1615496421.0
524,nizhniy kuranakh,58.8353,125.4869,17.42,86.0,100.0,4.34,RU,1615496422.0
525,vostok,46.4856,135.8833,17.06,97.0,93.0,3.02,RU,1615496423.0
526,moundsville,39.9203,-80.7431,57.2,72.0,90.0,12.66,US,1615496424.0
527,ende,-8.8432,121.6623,76.37,91.0,100.0,1.88,ID,1615496424.0
528,belaya gora,68.5333,146.4167,-10.21,96.0,100.0,3.67,RU,1615496425.0
529,port-gentil,-0.7193,8.7815,82.4,83.0,40.0,10.63,GA,1615496426.0
530,grand-lahou,5.1367,-5.0242,80.96,85.0,100.0,9.95,CI,1615496427.0
531,naberera,-4.2,36.9333,63.97,77.0,58.0,7.56,TZ,1615496427.0
532,mandalgovi,45.7625,106.2708,27.61,83.0,0.0,5.84,MN,1615496428.0
533,gaogou,34.0175,119.1886,44.1,90.0,99.0,5.01,CN,1615496429.0
534,santiago de chuco,-8.15,-78.1833,52.48,93.0,98.0,4.68,PE,1615496430.0
535,the valley,18.217,-63.0578,80.6,69.0,40.0,11.5,AI,1615496414.0
536,laramie,41.3114,-105.5911,36.0,51.0,75.0,23.02,US,1615496431.0
537,ceuta,35.8903,-5.3075,62.6,88.0,0.0,2.3,ES,1615496432.0
538,le port,-20.9373,55.2919,77.0,69.0,0.0,10.36,RE,1615496432.0
539,rabo de peixe,37.8,-25.5833,53.6,87.0,75.0,13.8,PT,1615496433.0
540,isangel,-19.55,169.2667,77.0,88.0,75.0,6.91,VU,1615496434.0
541,batsfjord,70.6345,29.7185,21.2,85.0,90.0,41.43,NO,1615496435.0
542,shar,49.5886,81.0453,24.24,81.0,100.0,14.92,KZ,1615496436.0
543,bulawayo,-20.15,28.5833,66.38,48.0,3.0,7.36,ZW,1615496436.0
544,tarko-sale,64.9225,77.785,-31.2,98.0,6.0,2.84,RU,1615496437.0
545,kapit,2.0167,112.9333,72.75,99.0,100.0,1.05,MY,1615496438.0
546,ndioum,16.5129,-14.6471,81.84,10.0,100.0,11.14,SN,1615496158.0
547,zabol,32.25,67.25,50.25,33.0,46.0,9.06,AF,1615496440.0
548,halifax,44.6453,-63.5724,45.0,87.0,90.0,12.66,CA,1615496427.0
549,lhokseumawe,5.1801,97.1507,77.59,78.0,35.0,2.06,ID,1615496442.0
550,pushkinskiye gory,57.0209,28.9103,22.89,76.0,100.0,14.67,RU,1615496442.0
551,huanren,41.2647,125.3667,39.63,95.0,100.0,0.67,CN,1615496443.0
552,abidjan,5.3094,-4.0197,82.4,94.0,40.0,9.22,CI,1615496433.0
553,birjand,32.8663,59.2211,48.2,20.0,0.0,4.61,IR,1615496445.0
554,usevya,-7.1,31.2333,67.14,91.0,44.0,1.23,TZ,1615496445.0
555,corner brook,48.9667,-57.9484,33.8,93.0,90.0,12.66,CA,1615496446.0
556,uvira,-3.4067,29.1458,74.41,76.0,93.0,1.7,CD,1615496447.0
557,tura,25.5198,90.2201,68.47,48.0,0.0,2.89,IN,1615496448.0
